[{"name":"경기초등학교","kind":"초등학교","sido":"서울특별시","addr":"서울특별시 서대문구 경기대로9길 10","school_type":"general","lat":37.5651102907996,"lng":126.962860648912},{"name":"경복초등학교","kind":"초등학교","sido":"서울특별시","addr":"서울특별시 광진구 천호대로130길 58","school_type":"general","lat":37.5498138606171,"lng":127.086793350213},{"name":"경희초등학교","kind":"초등학교","sido":"서울특별시","addr":"서울특별시 동대문구 경희대로 26","school_type":"general","lat":37.5939491407769,"lng":127.054890960564},{"name":"계성초등학교","kind":"초등학교","sido":"서울특별시","addr":"서울특별시 서초구 신반포로19길 23","school_type":"general","lat":37.5049357208076,"lng":126.996654362592},{"name":"광운초등학교","kind":"초등학교","sido":"서울특별시","addr":"서울특별시 성북구 한천로 694","school_type":"general","lat":37.6189751371516,"lng":127.055243952183},{"name":"금성초등학교","kind":"초등학교","sido":"서울특별시","addr":"서울특별시 중랑구 신내로21길 55","school_type":"general","lat":37.6153151256555,"lng":127.089858462734},{"name":"대광초등학교","kind":"초등학교","sido":"서울특별시","addr":"서울특별시 성북구 안암로 5","school_type":"general","lat":37.5791510372431,"lng":127.023445857158},{"name":"동광초등학교","kind":"초등학교","sido":"서울특별시","addr":"서울특별시 금천구 탑골로10길 45","school_type":"general","lat":37.4519206711218,"lng":126.915824008297},{"name":"동북초등학교","kind":"초등학교","sido":"서울특별시","addr":"서울특별시 도봉구 시루봉로 53","school_type":"general","lat":37.6562750160952,"lng":127.026703057445},{"name":"동산초등학교","kind":"초등학교","sido":"서울특별시","addr":"서울특별시 중구 매봉18길 109","school_type":"general","lat":37.5562046295135,"lng":127.016725380867},{"name":"리라초등학교","kind":"초등학교","sido":"서울특별시","addr":"서울특별시 중구 소파로2길 7","school_type":"general","lat":37.5578196996083,"lng":126.987980721445},{"name":"매원초등학교","kind":"초등학교","sido":"서울특별시","addr":"서울특별시 성북구 북악산로 870","school_type":"general","lat":37.597674141541,"lng":127.019187491701},{"name":"명지초등학교","kind":"초등학교","sido":"서울특별시","addr":"서울특별시 서대문구 명지2길 32-20","school_type":"general","lat":37.5836299393884,"lng":126.928231470941},{"name":"상명대학교사범대학부속초등학교","kind":"초등학교","sido":"서울특별시","addr":"서울특별시 종로구 홍지문2길 1","school_type":"general","lat":37.6007485057551,"lng":126.956425519955},{"name":"상명초등학교","kind":"초등학교","sido":"서울특별시","addr":"서울특별시 노원구 덕릉로 541","school_type":"general","lat":37.648727616308,"lng":127.066984539254},{"name":"서울가곡초등학교","kind":"초등학교","sido":"서울특별시","addr":"서울특별시 강서구 공항대로36길 74","school_type":"general","lat":37.5557021717114,"lng":126.836083394211},{"name":"서울가동초등학교","kind":"초등학교","sido":"서울특별시","addr":"서울특별시 송파구 중대로20길 47","school_type":"general","lat":37.4972559260218,"lng":127.129790328684},{"name":"서울가락초등학교","kind":"초등학교","sido":"서울특별시","addr":"서울특별시 송파구 송파대로37길 45","school_type":"general","lat":37.4998746399971,"lng":127.107214872322},{"name":"서울가산초등학교","kind":"초등학교","sido":"서울특별시","addr":"서울특별시 금천구 남부순환로 1304-11","school_type":"general","lat":37.4781477195501,"lng":126.896184019972},{"name":"서울가양초등학교","kind":"초등학교","sido":"서울특별시","addr":"서울 강서구 허준로 186","school_type":"general","lat":37.5622171927841,"lng":126.858521557616},{"name":"서울가원초등학교","kind":"초등학교","sido":"서울특별시","addr":"서울특별시 송파구 중대로4길 8","school_type":"general","lat":37.4894427777046,"lng":127.111028747643},{"name":"서울가인초등학교","kind":"초등학교","sido":"서울특별시","addr":"서울특별시 도봉구 도봉로136다길 4","school_type":"general","lat":37.6594678039701,"lng":127.042950889775},{"name":"서울가재울초등학교","kind":"초등학교","sido":"서울특별시","addr":"서울특별시 서대문구 모래내로15길 61","school_type":"general","lat":37.5737644190198,"lng":126.918388033648},{"name":"서울가주초등학교","kind":"초등학교","sido":"서울특별시","addr":"서울특별시 송파구 오금로40길 37","school_type":"general","lat":37.4965672156015,"lng":127.129280370183},{"name":"서울갈산초등학교","kind":"초등학교","sido":"서울특별시","addr":"서울특별시 양천구 목동로 31","school_type":"general","lat":37.5123715649068,"lng":126.870229875385},{"name":"서울갈현초등학교","kind":"초등학교","sido":"서울특별시","addr":"서울특별시 은평구 연서로29길 31","school_type":"general","lat":37.6197796356231,"lng":126.916683441356},{"name":"서울강남초등학교","kind":"초등학교","sido":"서울특별시","addr":"서울특별시 동작구 강남초등길 15","school_type":"general","lat":37.5062047182589,"lng":126.953567101813},{"name":"서울강덕초등학교","kind":"초등학교","sido":"서울특별시","addr":"서울특별시 강동구 동남로82길 94-54","school_type":"general","lat":37.5595474750238,"lng":127.160483581978},{"name":"서울강동초등학교","kind":"초등학교","sido":"서울특별시","addr":"서울특별시 강동구 상암로14길 77","school_type":"general","lat":37.5463638024947,"lng":127.130187177341},{"name":"서울강명초등학교","kind":"초등학교","sido":"서울특별시","addr":"서울특별시 강동구 상일로 74-1","school_type":"general","lat":37.5547060358492,"lng":127.173374480645},{"name":"서울강빛초등학교","kind":"초등학교","sido":"서울특별시","addr":"서울특별시 강동구 아리수로93다길 1","school_type":"general","lat":37.5743433210453,"lng":127.170774922577},{"name":"서울강서초등학교","kind":"초등학교","sido":"서울특별시","addr":"서울특별시 양천구 오목로 31","school_type":"general","lat":37.5224127216539,"lng":126.840987861073},{"name":"서울강솔초등학교","kind":"초등학교","sido":"서울특별시","addr":"서울특별시 강동구 고덕로97길 80","school_type":"general","lat":37.5618696246217,"lng":127.180267055739},{"name":"서울강신초등학교","kind":"초등학교","sido":"서울특별시","addr":"서울특별시 양천구 월정로 280","school_type":"general","lat":37.5421368264529,"lng":126.829581447367},{"name":"서울강월초등학교","kind":"초등학교","sido":"서울특별시","addr":"서울특별시 양천구 신월로 97","school_type":"general","lat":37.516341716111,"lng":126.833431935892},{"name":"서울강일초등학교","kind":"초등학교","sido":"서울특별시","addr":"서울특별시 강동구 아리수로98길 24","school_type":"general","lat":37.565255684305,"lng":127.177212459316},{"name":"서울개롱초등학교","kind":"초등학교","sido":"서울특별시","addr":"서울특별시 송파구 문정로 211","school_type":"general","lat":37.4973626123965,"lng":127.139888149341},{"name":"서울개명초등학교","kind":"초등학교","sido":"서울특별시","addr":"서울특별시 구로구 개봉로1다길 16-9","school_type":"general","lat":37.483056382598,"lng":126.850940659082},{"name":"서울개봉초등학교","kind":"초등학교","sido":"서울특별시","addr":"서울특별시 구로구 개봉로16길 30-11","school_type":"general","lat":37.4895280611996,"lng":126.857972181036},{"name":"서울개운초등학교","kind":"초등학교","sido":"서울특별시","addr":"서울특별시 성북구 정릉로48길 52","school_type":"general","lat":37.6018109508131,"lng":127.027404487079},{"name":"서울개웅초등학교","kind":"초등학교","sido":"서울특별시","addr":"서울특별시 구로구 개봉로11길 98","school_type":"general","lat":37.4885713176365,"lng":126.849982268839},{"name":"서울개원초등학교","kind":"초등학교","sido":"서울특별시","addr":"서울특별시 강남구 선릉로 29","school_type":"general","lat":37.4816986136485,"lng":127.059450501428},{"name":"서울개일초등학교","kind":"초등학교","sido":"서울특별시","addr":"서울특별시 강남구 개포로 401","school_type":"general","lat":37.4862353839469,"lng":127.057790853452},{"name":"서울개포초등학교","kind":"초등학교","sido":"서울특별시","addr":"서울특별시 강남구 삼성로4길 30","school_type":"general","lat":37.4863349159759,"lng":127.070310042973},{"name":"서울개현초등학교","kind":"초등학교","sido":"서울특별시","addr":"서울특별시 강남구 선릉로 15","school_type":"general","lat":37.4810262095918,"lng":127.062042570555},{"name":"서울개화초등학교","kind":"초등학교","sido":"서울특별시","addr":"서울특별시 강서구 양천로 11","school_type":"general","lat":37.5739262377478,"lng":126.804694204855},{"name":"서울거여초등학교","kind":"초등학교","sido":"서울특별시","addr":"서울특별시 송파구 마천로25길 18","school_type":"general","lat":37.5050261154817,"lng":127.140946785902},{"name":"서울거원초등학교","kind":"초등학교","sido":"서울특별시","addr":"서울특별시 송파구 양산로2길 26","school_type":"general","lat":37.4876385082093,"lng":127.144815961872},{"name":"서울경동초등학교","kind":"초등학교","sido":"서울특별시","addr":"서울특별시 성동구 성수일로 34","school_type":"general","lat":37.543825479341,"lng":127.050073697789},{"name":"서울경수초등학교","kind":"초등학교","sido":"서울특별시","addr":"서울특별시 성동구 뚝섬로13길 22","school_type":"general","lat":37.5404366739206,"lng":127.058066769768},{"name":"서울경인초등학교","kind":"초등학교","sido":"서울특별시","addr":"서울특별시 양천구 안양천로 1009","school_type":"general","lat":37.5328710177851,"lng":126.885695675904},{"name":"서울경일초등학교","kind":"초등학교","sido":"서울특별시","addr":"서울특별시 성동구 뚝섬로 332","school_type":"general","lat":37.5409410878081,"lng":127.046604922429},{"name":"서울계남초등학교","kind":"초등학교","sido":"서울특별시","addr":"서울특별시 양천구 목동동로2길 54","school_type":"general","lat":37.5101677598408,"lng":126.86001590922},{"name":"서울계상초등학교","kind":"초등학교","sido":"서울특별시","addr":"서울특별시 노원구 한글비석로41가길 24","school_type":"general","lat":37.6624464105885,"lng":127.068880275281},{"name":"서울고덕초등학교","kind":"초등학교","sido":"서울특별시","addr":"서울특별시 강동구 아리수로82길 42","school_type":"general","lat":37.5612942209058,"lng":127.166096972163},{"name":"서울고명초등학교","kind":"초등학교","sido":"서울특별시","addr":"서울특별시 강동구 고덕로46길 53","school_type":"general","lat":37.5529725262612,"lng":127.147436202442},{"name":"서울고산초등학교","kind":"초등학교","sido":"서울특별시","addr":"서울특별시 구로구 중앙로 6","school_type":"general","lat":37.4993252329505,"lng":126.865350068539},{"name":"서울고원초등학교","kind":"초등학교","sido":"서울특별시","addr":"서울특별시 구로구 경인로46길 13","school_type":"general","lat":37.4976454267483,"lng":126.865771276704},{"name":"서울고은초등학교","kind":"초등학교","sido":"서울특별시","addr":"서울특별시 서대문구 모래내로 441","school_type":"general","lat":37.585001844196,"lng":126.943974937789},{"name":"서울고일초등학교","kind":"초등학교","sido":"서울특별시","addr":"서울특별시 강동구 구천면로93길 20","school_type":"general","lat":37.5515426236302,"lng":127.169410143976},{"name":"서울고척초등학교","kind":"초등학교","sido":"서울특별시","addr":"서울특별시 구로구 경서로 31","school_type":"general","lat":37.5009763571584,"lng":126.85679629258},{"name":"서울고현초등학교","kind":"초등학교","sido":"서울특별시","addr":"서울특별시 강동구 상일로11길 110","school_type":"general","lat":37.5538039438067,"lng":127.166050130468},{"name":"서울공덕초등학교","kind":"초등학교","sido":"서울특별시","addr":"서울특별시 마포구 만리재옛길 13","school_type":"general","lat":37.5458033455121,"lng":126.954823056539},{"name":"서울공릉초등학교","kind":"초등학교","sido":"서울특별시","addr":"서울특별시 노원구 동일로173길 12","school_type":"general","lat":37.6186120126537,"lng":127.074614270574},{"name":"서울공연초등학교","kind":"초등학교","sido":"서울특별시","addr":"서울특별시 노원구 동일로192가길 16","school_type":"general","lat":37.62719482311,"lng":127.074030837547},{"name":"서울공진초등학교","kind":"초등학교","sido":"서울특별시","addr":"서울특별시 강서구 마곡서로 33","school_type":"general","lat":37.5578308778281,"lng":126.822806144479},{"name":"서울공항초등학교","kind":"초등학교","sido":"서울특별시","addr":"서울특별시 강서구 마곡서1로 68","school_type":"general","lat":37.5631752585272,"lng":126.821215237029},{"name":"서울관악초등학교","kind":"초등학교","sido":"서울특별시","addr":"서울 관악구 청룡4길 49","school_type":"general","lat":37.4810297131995,"lng":126.942570541831},{"name":"서울광남초등학교","kind":"초등학교","sido":"서울특별시","addr":"서울특별시 광진구 아차산로70길 35","school_type":"general","lat":37.5409675314785,"lng":127.100704228215},{"name":"서울광장초등학교","kind":"초등학교","sido":"서울특별시","addr":"서울특별시 광진구 광장로1길 27","school_type":"general","lat":37.5485492186653,"lng":127.101799885644},{"name":"서울광진초등학교","kind":"초등학교","sido":"서울특별시","addr":"서울특별시 광진구 자양로40길 41","school_type":"general","lat":37.5476114602117,"lng":127.091332532375},{"name":"서울광희초등학교","kind":"초등학교","sido":"서울특별시","addr":"서울특별시 중구 다산로 269","school_type":"general","lat":37.5672992845452,"lng":127.015687859678},{"name":"서울교동초등학교","kind":"초등학교","sido":"서울특별시","addr":"서울특별시 종로구 삼일대로 446","school_type":"general","lat":37.5749936834295,"lng":126.988075995471},{"name":"서울교육대학교부설초등학교","kind":"초등학교","sido":"서울특별시","addr":"서울특별시 서초구 서초중앙로 96","school_type":"general","lat":37.4907404857731,"lng":127.015424537648},{"name":"서울구남초등학교","kind":"초등학교","sido":"서울특별시","addr":"서울특별시 광진구 구의강변로 69","school_type":"general","lat":37.5370965949427,"lng":127.092288798461},{"name":"서울구로남초등학교","kind":"초등학교","sido":"서울특별시","addr":"서울특별시 구로구 디지털로27길 76","school_type":"general","lat":37.4847045985983,"lng":126.890267788001},{"name":"서울구로초등학교","kind":"초등학교","sido":"서울특별시","addr":"서울특별시 구로구 구로중앙로27나길 9","school_type":"general","lat":37.4972616788429,"lng":126.886001814771},{"name":"서울구룡초등학교","kind":"초등학교","sido":"서울특별시","addr":"서울특별시 강남구 개포로 263","school_type":"general","lat":37.4811973926876,"lng":127.051771435538},{"name":"서울구산초등학교","kind":"초등학교","sido":"서울특별시","addr":"서울특별시 은평구 서오릉로15길 16","school_type":"general","lat":37.6127509583582,"lng":126.909376492632},{"name":"서울구암초등학교","kind":"초등학교","sido":"서울특별시","addr":"서울특별시 관악구 구암길 1","school_type":"general","lat":37.4892174749954,"lng":126.946271723126},{"name":"서울구의초등학교","kind":"초등학교","sido":"서울특별시","addr":"서울특별시 광진구 광나루로30길 49","school_type":"general","lat":37.5430074366803,"lng":127.08031177586},{"name":"서울구일초등학교","kind":"초등학교","sido":"서울특별시","addr":"서울특별시 구로구 구일로 68","school_type":"general","lat":37.4931918730561,"lng":126.873472709056},{"name":"서울구현초등학교","kind":"초등학교","sido":"서울특별시","addr":"서울특별시 은평구 갈현로15길 51","school_type":"general","lat":37.6097895968758,"lng":126.905707319658},{"name":"서울군자초등학교","kind":"초등학교","sido":"서울특별시","addr":"서울특별시 동대문구 한천로6길 21","school_type":"general","lat":37.5641223174494,"lng":127.060523298508},{"name":"서울금나래초등학교","kind":"초등학교","sido":"서울특별시","addr":"서울특별시 금천구 시흥대로79길 37","school_type":"general","lat":37.4582299981347,"lng":126.896205569649},{"name":"서울금동초등학교","kind":"초등학교","sido":"서울특별시","addr":"서울특별시 금천구 금하로30길 53","school_type":"general","lat":37.4477657831877,"lng":126.916396430625},{"name":"서울금북초등학교","kind":"초등학교","sido":"서울특별시","addr":"서울특별시 성동구 행당로1길 13","school_type":"general","lat":37.5574476886561,"lng":127.023369904581},{"name":"서울금산초등학교","kind":"초등학교","sido":"서울특별시","addr":"서울특별시 금천구 시흥대로24길 57","school_type":"general","lat":37.4414211782481,"lng":126.907881604603},{"name":"서울금양초등학교","kind":"초등학교","sido":"서울특별시","addr":"서울특별시 용산구 효창원로 137","school_type":"general","lat":37.5409423141075,"lng":126.961831873199},{"name":"서울금옥초등학교","kind":"초등학교","sido":"서울특별시","addr":"서울특별시 성동구 독서당로 251","school_type":"general","lat":37.5463023672303,"lng":127.017491634615},{"name":"서울금천초등학교","kind":"초등학교","sido":"서울특별시","addr":"서울특별시 금천구 탑골로5길 60","school_type":"general","lat":37.4548043070511,"lng":126.912886851466},{"name":"서울금호초등학교","kind":"초등학교","sido":"서울특별시","addr":"서울특별시 성동구 무수막길 69","school_type":"general","lat":37.5518979414195,"lng":127.020752859362},{"name":"서울금화초등학교","kind":"초등학교","sido":"서울특별시","addr":"서울특별시 서대문구 통일로 165","school_type":"general","lat":37.5688275546965,"lng":126.962941434617},{"name":"서울길동초등학교","kind":"초등학교","sido":"서울특별시","addr":"서울특별시 강동구 양재대로116길 69","school_type":"general","lat":37.5385916779149,"lng":127.144972942492},{"name":"서울길원초등학교","kind":"초등학교","sido":"서울특별시","addr":"서울특별시 성북구 길음로15길 55","school_type":"general","lat":37.6090646447836,"lng":127.01679961391},{"name":"서울길음초등학교","kind":"초등학교","sido":"서울특별시","addr":"서울특별시 성북구 길음로 142","school_type":"general","lat":37.6136049157335,"lng":127.016752046083},{"name":"서울난곡초등학교","kind":"초등학교","sido":"서울특별시","addr":"서울특별시 관악구 난곡로35길 102","school_type":"general","lat":37.4691282036291,"lng":126.916341558815},{"name":"서울난우초등학교","kind":"초등학교","sido":"서울특별시","addr":"서울특별시 관악구 난우길 40","school_type":"general","lat":37.4771205875183,"lng":126.917458792183},{"name":"서울난향초등학교","kind":"초등학교","sido":"서울특별시","addr":"서울특별시 관악구 난향길 9","school_type":"general","lat":37.4628218910704,"lng":126.918336846046},{"name":"서울남명초등학교","kind":"초등학교","sido":"서울특별시","addr":"서울특별시 양천구 중앙로23길 3","school_type":"general","lat":37.5156885267235,"lng":126.854099844566},{"name":"서울남부초등학교","kind":"초등학교","sido":"서울특별시","addr":"서울특별시 관악구 남부순환로163길 14","school_type":"general","lat":37.4851194359099,"lng":126.922183775699},{"name":"서울남사초등학교","kind":"초등학교","sido":"서울특별시","addr":"서울특별시 동작구 동작대로13길 22","school_type":"general","lat":37.48194132287,"lng":126.978234357795},{"name":"서울남산초등학교","kind":"초등학교","sido":"서울특별시","addr":"서울특별시 중구 퇴계로22길 17","school_type":"general","lat":37.5597837446411,"lng":126.986776737543},{"name":"서울남성초등학교","kind":"초등학교","sido":"서울특별시","addr":"서울특별시 동작구 사당로23길 57-14","school_type":"general","lat":37.4846330175369,"lng":126.975577985193},{"name":"서울남정초등학교","kind":"초등학교","sido":"서울특별시","addr":"서울특별시 용산구 원효로64길 17-10","school_type":"general","lat":37.5356738275449,"lng":126.964803669293},{"name":"서울남천초등학교","kind":"초등학교","sido":"서울특별시","addr":"서울특별시 송파구 성내천로 207","school_type":"general","lat":37.5013291325477,"lng":127.151063224565},{"name":"서울내발산초등학교","kind":"초등학교","sido":"서울특별시","addr":"서울특별시 강서구 강서로46길 23","school_type":"general","lat":37.5508825455676,"lng":126.838164214765},{"name":"서울노량진초등학교","kind":"초등학교","sido":"서울특별시","addr":"서울특별시 동작구 장승배기로 160","school_type":"general","lat":37.5117195690698,"lng":126.940827465638},{"name":"서울노원초등학교","kind":"초등학교","sido":"서울특별시","addr":"서울특별시 노원구 동일로230나길 32","school_type":"general","lat":37.6735901336984,"lng":127.058460101574},{"name":"서울노일초등학교","kind":"초등학교","sido":"서울특별시","addr":"서울특별시 노원구 동일로 1625","school_type":"general","lat":37.6735135287049,"lng":127.05513756871},{"name":"서울녹번초등학교","kind":"초등학교","sido":"서울특별시","addr":"서울특별시 은평구 녹번로1길 1","school_type":"general","lat":37.6045833930687,"lng":126.925746281804},{"name":"서울녹천초등학교","kind":"초등학교","sido":"서울특별시","addr":"서울특별시 노원구 마들로3길 34","school_type":"general","lat":37.6285101097035,"lng":127.063134105063},{"name":"서울논현초등학교","kind":"초등학교","sido":"서울특별시","addr":"서울특별시 강남구 강남대로120길 33","school_type":"general","lat":37.5084895751287,"lng":127.026222910697},{"name":"서울누원초등학교","kind":"초등학교","sido":"서울특별시","addr":"서울특별시 도봉구 마들로 859-44","school_type":"general","lat":37.6872327127492,"lng":127.04926716395},{"name":"서울답십리초등학교","kind":"초등학교","sido":"서울특별시","addr":"서울특별시 동대문구 전농로3길 23","school_type":"general","lat":37.5688043221289,"lng":127.055427038114},{"name":"서울당곡초등학교","kind":"초등학교","sido":"서울특별시","addr":"서울특별시 관악구 보라매로2길 23","school_type":"general","lat":37.4901681154487,"lng":126.930369788237},{"name":"서울당산초등학교","kind":"초등학교","sido":"서울특별시","addr":"서울특별시 영등포구 선유로55길 32","school_type":"general","lat":37.5401191186811,"lng":126.896241067017},{"name":"서울당서초등학교","kind":"초등학교","sido":"서울특별시","addr":"서울특별시 영등포구 당산로 187","school_type":"general","lat":37.5320274377069,"lng":126.89981419859},{"name":"서울당중초등학교","kind":"초등학교","sido":"서울특별시","addr":"서울특별시 영등포구 선유로 131","school_type":"general","lat":37.52628923031,"lng":126.889413529916},{"name":"서울당현초등학교","kind":"초등학교","sido":"서울특별시","addr":"서울특별시 노원구 동일로213길 52","school_type":"general","lat":37.6482303134222,"lng":127.058252457257},{"name":"서울대곡초등학교","kind":"초등학교","sido":"서울특별시","addr":"서울특별시 강남구 남부순환로 3022","school_type":"general","lat":37.4947106436849,"lng":127.065026465684},{"name":"서울대길초등학교","kind":"초등학교","sido":"서울특별시","addr":"서울특별시 영등포구 대방천로 206","school_type":"general","lat":37.4982314495379,"lng":126.913035010017},{"name":"서울대도초등학교","kind":"초등학교","sido":"서울특별시","addr":"서울특별시 강남구 선릉로 209","school_type":"general","lat":37.4925857669174,"lng":127.053206571031},{"name":"서울대동초등학교","kind":"초등학교","sido":"서울특별시","addr":"서울특별시 영등포구 대림로21길 6","school_type":"general","lat":37.4937093653318,"lng":126.900450594121},{"name":"서울대림초등학교","kind":"초등학교","sido":"서울특별시","addr":"서울특별시 동작구 대방동1길 22","school_type":"general","lat":37.5006196717046,"lng":126.924878133652},{"name":"서울대명초등학교","kind":"초등학교","sido":"서울특별시","addr":"서울특별시 강동구 상암로 271","school_type":"general","lat":37.547707060343,"lng":127.152849551167},{"name":"서울대모초등학교","kind":"초등학교","sido":"서울특별시","addr":"서울특별시 강남구 광평로20길 27","school_type":"general","lat":37.4805984530071,"lng":127.085993825956},{"name":"서울대방초등학교","kind":"초등학교","sido":"서울특별시","addr":"서울특별시 영등포구 여의대방로35길 14","school_type":"general","lat":37.5029001208602,"lng":126.919020182507},{"name":"서울대신초등학교","kind":"초등학교","sido":"서울특별시","addr":"서울특별시 서대문구 이화여대2길 27","school_type":"general","lat":37.5579475491997,"lng":126.948057240166},{"name":"서울대영초등학교","kind":"초등학교","sido":"서울특별시","addr":"서울특별시 영등포구 신길로23길 43","school_type":"general","lat":37.5026541997676,"lng":126.906524398043},{"name":"서울대왕초등학교","kind":"초등학교","sido":"서울특별시","addr":"서울특별시 강남구 헌릉로618길 8","school_type":"general","lat":37.4646391801831,"lng":127.105303959604},{"name":"서울대은초등학교","kind":"초등학교","sido":"서울특별시","addr":"서울특별시 은평구 통일로69길 12-15","school_type":"general","lat":37.6123671176016,"lng":126.925869811138},{"name":"서울대조초등학교","kind":"초등학교","sido":"서울특별시","addr":"서울특별시 은평구 연서로18길 17","school_type":"general","lat":37.613579143925,"lng":126.919302166743},{"name":"서울대진초등학교","kind":"초등학교","sido":"서울특별시","addr":"서울특별시 강남구 개포로109길 74","school_type":"general","lat":37.4970275687873,"lng":127.077861373551},{"name":"서울대청초등학교","kind":"초등학교","sido":"서울특별시","addr":"서울특별시 강남구 양재대로55길 28","school_type":"general","lat":37.4931480982967,"lng":127.087767273125},{"name":"서울대치초등학교","kind":"초등학교","sido":"서울특별시","addr":"서울특별시 강남구 양재천로 363","school_type":"general","lat":37.4912865672214,"lng":127.06197065881},{"name":"서울대학교사범대학부설초등학교","kind":"초등학교","sido":"서울특별시","addr":"서울특별시 종로구 대학로 64","school_type":"general","lat":37.577618353105,"lng":127.004315334067},{"name":"서울대현초등학교","kind":"초등학교","sido":"서울특별시","addr":"서울특별시 강남구 역삼로98길 16","school_type":"general","lat":37.5034861238053,"lng":127.063292075669},{"name":"서울덕수초등학교","kind":"초등학교","sido":"서울특별시","addr":"서울특별시 중구 덕수궁길 140","school_type":"general","lat":37.5690888764456,"lng":126.974657902016},{"name":"서울덕암초등학교","kind":"초등학교","sido":"서울특별시","addr":"서울특별시 노원구 덕릉로112길 68","school_type":"general","lat":37.6666337243041,"lng":127.081715132961},{"name":"서울덕의초등학교","kind":"초등학교","sido":"서울특별시","addr":"서울특별시 구로구 고척로 213","school_type":"general","lat":37.5060004032334,"lng":126.857353094103},{"name":"서울도곡초등학교","kind":"초등학교","sido":"서울특별시","addr":"서울특별시 강남구 선릉로64길 33","school_type":"general","lat":37.4995114113359,"lng":127.054465527162},{"name":"서울도림초등학교","kind":"초등학교","sido":"서울특별시","addr":"서울특별시 영등포구 가마산로65길 22","school_type":"general","lat":37.5086786949617,"lng":126.907115425568},{"name":"서울도봉초등학교","kind":"초등학교","sido":"서울특별시","addr":"서울특별시 도봉구 도봉로173길 96","school_type":"general","lat":37.679961751365,"lng":127.038288664028},{"name":"서울도성초등학교","kind":"초등학교","sido":"서울특별시","addr":"서울특별시 강남구 역삼로 313","school_type":"general","lat":37.5014620128395,"lng":127.048872178861},{"name":"서울도신초등학교","kind":"초등학교","sido":"서울특별시","addr":"서울특별시 영등포구 도림로53길 32-9","school_type":"general","lat":37.4992678949668,"lng":126.900714062322},{"name":"서울독립문초등학교","kind":"초등학교","sido":"서울특별시","addr":"서울특별시 종로구 통일로12길 23","school_type":"general","lat":37.5740826001873,"lng":126.960148752178},{"name":"서울독산초등학교","kind":"초등학교","sido":"서울특별시","addr":"서울특별시 금천구 시흥대로104길 31","school_type":"general","lat":37.4656561906645,"lng":126.899712928109},{"name":"서울돈암초등학교","kind":"초등학교","sido":"서울특별시","addr":"서울특별시 성북구 동소문로13길 38","school_type":"general","lat":37.5937262094153,"lng":127.013004275409},{"name":"서울동교초등학교","kind":"초등학교","sido":"서울특별시","addr":"서울특별시 마포구 월드컵로25길 86","school_type":"general","lat":37.5583376929114,"lng":126.902078300574},{"name":"서울동구로초등학교","kind":"초등학교","sido":"서울특별시","addr":"서울특별시 구로구 구로중앙로14길 43","school_type":"general","lat":37.4944479994725,"lng":126.893016334052},{"name":"서울동답초등학교","kind":"초등학교","sido":"서울특별시","addr":"서울특별시 동대문구 답십리로60길 12","school_type":"general","lat":37.5715014215127,"lng":127.06403409435},{"name":"서울동명초등학교","kind":"초등학교","sido":"서울특별시","addr":"서울특별시 성동구 마장로29길 29","school_type":"general","lat":37.5681230316305,"lng":127.035108248651},{"name":"서울동신초등학교","kind":"초등학교","sido":"서울특별시","addr":"서울특별시 성북구 보문사길 50","school_type":"general","lat":37.5832878743837,"lng":127.017057951549},{"name":"서울동원초등학교","kind":"초등학교","sido":"서울특별시","addr":"서울특별시 중랑구 송림길 114","school_type":"general","lat":37.604668339535,"lng":127.104292115551},{"name":"서울동의초등학교","kind":"초등학교","sido":"서울특별시","addr":"서울특별시 광진구 영화사로 111","school_type":"general","lat":37.5534224448219,"lng":127.099047310011},{"name":"서울동일초등학교","kind":"초등학교","sido":"서울특별시","addr":"서울특별시 노원구 한글비석로 566","school_type":"general","lat":37.6648178269709,"lng":127.054322233957},{"name":"서울동자초등학교","kind":"초등학교","sido":"서울특별시","addr":"서울특별시 광진구 뚝섬로 561","school_type":"general","lat":37.5350582094918,"lng":127.072179165371},{"name":"서울동작초등학교","kind":"초등학교","sido":"서울특별시","addr":"서울특별시 동작구 동작대로29길 214","school_type":"general","lat":37.4940605364226,"lng":126.976489285999},{"name":"서울동호초등학교","kind":"초등학교","sido":"서울특별시","addr":"서울특별시 성동구 매봉길 49-35","school_type":"general","lat":37.5462920770572,"lng":127.009879731064},{"name":"서울두산초등학교","kind":"초등학교","sido":"서울특별시","addr":"서울특별시 금천구 범안로11길 3","school_type":"general","lat":37.467546675265,"lng":126.890946472913},{"name":"서울둔촌초등학교","kind":"초등학교","sido":"서울특별시","addr":"서울특별시 강동구 양재대로88길 27","school_type":"general","lat":37.5262199311307,"lng":127.137454081546},{"name":"서울등마초등학교","kind":"초등학교","sido":"서울특별시","addr":"서울특별시 강서구 등촌로35길 12","school_type":"general","lat":37.5420437126904,"lng":126.861667207498},{"name":"서울등명초등학교","kind":"초등학교","sido":"서울특별시","addr":"서울특별시 강서구 강서로56나길 34","school_type":"general","lat":37.560894450375,"lng":126.842382226829},{"name":"서울등서초등학교","kind":"초등학교","sido":"서울특별시","addr":"서울특별시 강서구 화곡로58길 86","school_type":"general","lat":37.5518843920056,"lng":126.855038093326},{"name":"서울등양초등학교","kind":"초등학교","sido":"서울특별시","addr":"서울특별시 강서구 강서로56나길 140","school_type":"general","lat":37.5649470358937,"lng":126.844760249704},{"name":"서울등원초등학교","kind":"초등학교","sido":"서울특별시","addr":"서울특별시 강서구 화곡로65길 90","school_type":"general","lat":37.5598135358227,"lng":126.850068963394},{"name":"서울등촌초등학교","kind":"초등학교","sido":"서울특별시","addr":"서울특별시 강서구 등촌로39길 71","school_type":"general","lat":37.5476142187642,"lng":126.857942163854},{"name":"서울등현초등학교","kind":"초등학교","sido":"서울특별시","addr":"서울특별시 강서구 화곡로65길 124","school_type":"general","lat":37.5614511765549,"lng":126.847598419984},{"name":"서울마장초등학교","kind":"초등학교","sido":"서울특별시","addr":"서울특별시 성동구 마장로35나길 31","school_type":"general","lat":37.5683388716972,"lng":127.041605053834},{"name":"서울마천초등학교","kind":"초등학교","sido":"서울특별시","addr":"서울특별시 송파구 마천로61다길 24","school_type":"general","lat":37.495437509372,"lng":127.152704624882},{"name":"서울마포초등학교","kind":"초등학교","sido":"서울특별시","addr":"서울특별시 마포구 도화2길 64","school_type":"general","lat":37.5386376331175,"lng":126.949973786127},{"name":"서울망우초등학교","kind":"초등학교","sido":"서울특별시","addr":"서울특별시 중랑구 망우로72길 49","school_type":"general","lat":37.5987369776708,"lng":127.103841751495},{"name":"서울망원초등학교","kind":"초등학교","sido":"서울특별시","addr":"서울특별시 마포구 방울내로5길 28","school_type":"general","lat":37.5610439363669,"lng":126.901117241},{"name":"서울매동초등학교","kind":"초등학교","sido":"서울특별시","addr":"서울특별시 종로구 사직로9길 19","school_type":"general","lat":37.5775391376934,"lng":126.966716978826},{"name":"서울매봉초등학교","kind":"초등학교","sido":"서울특별시","addr":"서울특별시 구로구 고척로21길 55","school_type":"general","lat":37.5049440040772,"lng":126.844386612871},{"name":"서울매헌초등학교","kind":"초등학교","sido":"서울특별시","addr":"서울특별시 서초구 언남길 8","school_type":"general","lat":37.4712624819608,"lng":127.042057861972},{"name":"서울면남초등학교","kind":"초등학교","sido":"서울특별시","addr":"서울특별시 중랑구 면목로30나길 38","school_type":"general","lat":37.5772597202711,"lng":127.087666433029},{"name":"서울면동초등학교","kind":"초등학교","sido":"서울특별시","addr":"서울특별시 중랑구 면목로57길 32","school_type":"general","lat":37.5852407128388,"lng":127.085961098757},{"name":"서울면목초등학교","kind":"초등학교","sido":"서울특별시","addr":"서울특별시 중랑구 면목로 434","school_type":"general","lat":37.5906965996805,"lng":127.087287822911},{"name":"서울면북초등학교","kind":"초등학교","sido":"서울특별시","addr":"서울특별시 중랑구 용마공원로5길 32","school_type":"general","lat":37.5944181555082,"lng":127.103547800182},{"name":"서울면일초등학교","kind":"초등학교","sido":"서울특별시","addr":"서울특별시 중랑구 용마산로100길 13","school_type":"general","lat":37.5920415995378,"lng":127.099794712349},{"name":"서울면중초등학교","kind":"초등학교","sido":"서울특별시","addr":"서울특별시 중랑구 용마산로70길 43","school_type":"general","lat":37.5824417903374,"lng":127.096550877754},{"name":"서울명덕초등학교","kind":"초등학교","sido":"서울특별시","addr":"서울특별시 강동구 양재대로156길 11","school_type":"general","lat":37.5567623333733,"lng":127.145081475071},{"name":"서울명신초등학교","kind":"초등학교","sido":"서울특별시","addr":"서울특별시 종로구 낙산길 250","school_type":"general","lat":37.5813606333694,"lng":127.013724533725},{"name":"서울명원초등학교","kind":"초등학교","sido":"서울특별시","addr":"서울특별시 강동구 명일로 364","school_type":"general","lat":37.5512878500966,"lng":127.15050016138},{"name":"서울명일초등학교","kind":"초등학교","sido":"서울특별시","addr":"서울특별시 강동구 고덕로38길 8","school_type":"general","lat":37.554553599981,"lng":127.142591145632},{"name":"서울목동초등학교","kind":"초등학교","sido":"서울특별시","addr":"서울특별시 양천구 목동동로12길 12","school_type":"general","lat":37.5228087705411,"lng":126.872119522597},{"name":"서울목운초등학교","kind":"초등학교","sido":"서울특별시","addr":"서울특별시 양천구 목동동로 235","school_type":"general","lat":37.527009517428,"lng":126.873044206364},{"name":"서울목원초등학교","kind":"초등학교","sido":"서울특별시","addr":"서울특별시 양천구 목동중앙로 204","school_type":"general","lat":37.5429349691333,"lng":126.882445908007},{"name":"서울묘곡초등학교","kind":"초등학교","sido":"서울특별시","addr":"서울특별시 강동구 동남로79길 46","school_type":"general","lat":37.5587127850485,"lng":127.153093406496},{"name":"서울무학초등학교","kind":"초등학교","sido":"서울특별시","addr":"서울특별시 성동구 무학봉15길 21","school_type":"general","lat":37.5632612152138,"lng":127.029678058836},{"name":"서울묵동초등학교","kind":"초등학교","sido":"서울특별시","addr":"서울특별시 중랑구 동일로138길 27","school_type":"general","lat":37.603359494137,"lng":127.080827217486},{"name":"서울묵현초등학교","kind":"초등학교","sido":"서울특별시","addr":"서울특별시 중랑구 동일로157길 75","school_type":"general","lat":37.609044756978,"lng":127.073928695922},{"name":"서울문교초등학교","kind":"초등학교","sido":"서울특별시","addr":"서울특별시 금천구 독산로54길 102","school_type":"general","lat":37.4667696443557,"lng":126.90892992546},{"name":"서울문덕초등학교","kind":"초등학교","sido":"서울특별시","addr":"서울특별시 송파구 송이로34길 60","school_type":"general","lat":37.4850521596354,"lng":127.127962742492},{"name":"서울문래초등학교","kind":"초등학교","sido":"서울특별시","addr":"서울특별시 영등포구 문래로 104","school_type":"general","lat":37.5191403848287,"lng":126.893605730635},{"name":"서울문백초등학교","kind":"초등학교","sido":"서울특별시","addr":"서울특별시 금천구 시흥대로47길 43-1","school_type":"general","lat":37.4471198696556,"lng":126.898688718403},{"name":"서울문성초등학교","kind":"초등학교","sido":"서울특별시","addr":"서울특별시 금천구 시흥대로 460","school_type":"general","lat":37.4748818804257,"lng":126.899471333222},{"name":"서울문정초등학교","kind":"초등학교","sido":"서울특별시","addr":"서울특별시 송파구 문정로5길 20","school_type":"general","lat":37.4890774089099,"lng":127.129206175689},{"name":"서울문창초등학교","kind":"초등학교","sido":"서울특별시","addr":"서울특별시 동작구 신대방2길 14","school_type":"general","lat":37.4889482943857,"lng":126.914528045959},{"name":"서울문현초등학교","kind":"초등학교","sido":"서울특별시","addr":"서울특별시 송파구 충민로 137","school_type":"general","lat":37.482790915501,"lng":127.130257129876},{"name":"서울미동초등학교","kind":"초등학교","sido":"서울특별시","addr":"서울특별시 서대문구 충정로 52","school_type":"general","lat":37.5633505669619,"lng":126.965886060285},{"name":"서울미래초등학교","kind":"초등학교","sido":"서울특별시","addr":"서울특별시 구로구 새말로 73","school_type":"general","lat":37.5051066487493,"lng":126.888080264013},{"name":"서울미성초등학교","kind":"초등학교","sido":"서울특별시","addr":"서울특별시 관악구 문성로 79","school_type":"general","lat":37.4783399695494,"lng":126.912392273996},{"name":"서울미아초등학교","kind":"초등학교","sido":"서울특별시","addr":"서울특별시 성북구 삼양로 77","school_type":"general","lat":37.6105849033293,"lng":127.021657995431},{"name":"서울미양초등학교","kind":"초등학교","sido":"서울특별시","addr":"서울특별시 강북구 솔샘로 195","school_type":"general","lat":37.6215324222942,"lng":127.014133356491},{"name":"서울반원초등학교","kind":"초등학교","sido":"서울특별시","addr":"서울특별시 서초구 잠원로3길 28","school_type":"general","lat":37.5103872227025,"lng":127.004236132457},{"name":"서울반포초등학교","kind":"초등학교","sido":"서울특별시","addr":"서울특별시 서초구 신반포로 55-4","school_type":"general","lat":37.5024848344961,"lng":126.991741582915},{"name":"서울발산초등학교","kind":"초등학교","sido":"서울특별시","addr":"서울특별시 강서구 강서로45길 113","school_type":"general","lat":37.5502624356308,"lng":126.830994377549},{"name":"서울방배초등학교","kind":"초등학교","sido":"서울특별시","addr":"서울특별시 서초구 방배중앙로13길 26","school_type":"general","lat":37.4867641043401,"lng":126.987137986274},{"name":"서울방산초등학교","kind":"초등학교","sido":"서울특별시","addr":"서울특별시 송파구 오금로27길 42","school_type":"general","lat":37.5095379215333,"lng":127.121190696197},{"name":"서울방이초등학교","kind":"초등학교","sido":"서울특별시","addr":"서울특별시 송파구 위례성대로10길 4","school_type":"general","lat":37.513512293639,"lng":127.120531131015},{"name":"서울방일초등학교","kind":"초등학교","sido":"서울특별시","addr":"서울특별시 서초구 방배로18길 52","school_type":"general","lat":37.4852056040312,"lng":126.998848974708},{"name":"서울방학초등학교","kind":"초등학교","sido":"서울특별시","addr":"서울특별시 도봉구 도당로9길 34","school_type":"general","lat":37.6639337284245,"lng":127.032747955457},{"name":"서울방현초등학교","kind":"초등학교","sido":"서울특별시","addr":"서울특별시 서초구 효령로4길 58","school_type":"general","lat":37.4765029769283,"lng":126.990073388581},{"name":"서울방화초등학교","kind":"초등학교","sido":"서울특별시","addr":"서울특별시 강서구 양천로6길 92","school_type":"general","lat":37.5687040876215,"lng":126.807498167739},{"name":"서울배봉초등학교","kind":"초등학교","sido":"서울특별시","addr":"서울특별시 동대문구 사가정로 193","school_type":"general","lat":37.58008416213,"lng":127.066871936075},{"name":"서울백산초등학교","kind":"초등학교","sido":"서울특별시","addr":"서울특별시 금천구 시흥대로38길 78","school_type":"general","lat":37.4467672802822,"lng":126.905064619222},{"name":"서울백석초등학교","kind":"초등학교","sido":"서울특별시","addr":"서울특별시 강서구 공항대로 491","school_type":"general","lat":37.5536476529209,"lng":126.862425846537},{"name":"서울백운초등학교","kind":"초등학교","sido":"서울특별시","addr":"서울특별시 도봉구 삼양로146길 17","school_type":"general","lat":37.6526415114592,"lng":127.013672482387},{"name":"서울버들초등학교","kind":"초등학교","sido":"서울특별시","addr":"서울특별시 송파구 석촌호수로 81","school_type":"general","lat":37.5102185018601,"lng":127.089274587416},{"name":"서울번동초등학교","kind":"초등학교","sido":"서울특별시","addr":"서울특별시 강북구 오현로 204","school_type":"general","lat":37.6290238580608,"lng":127.040039390037},{"name":"서울보광초등학교","kind":"초등학교","sido":"서울특별시","addr":"서울특별시 용산구 우사단로 20","school_type":"general","lat":37.5325404707342,"lng":126.996391100579},{"name":"서울보라매초등학교","kind":"초등학교","sido":"서울특별시","addr":"서울특별시 동작구 여의대방로16길 30","school_type":"general","lat":37.4958518874539,"lng":126.916144507788},{"name":"서울본동초등학교","kind":"초등학교","sido":"서울특별시","addr":"서울특별시 동작구 노량진로26길 16-40","school_type":"general","lat":37.5106568125953,"lng":126.953923907042},{"name":"서울봉래초등학교","kind":"초등학교","sido":"서울특별시","addr":"서울특별시 중구 손기정로 73","school_type":"general","lat":37.5564123449189,"lng":126.965250577981},{"name":"서울봉은초등학교","kind":"초등학교","sido":"서울특별시","addr":"서울특별시 강남구 학동로 610","school_type":"general","lat":37.5200478271392,"lng":127.060746725412},{"name":"서울봉천초등학교","kind":"초등학교","sido":"서울특별시","addr":"서울특별시 관악구 행운1라길 17","school_type":"general","lat":37.4832732140812,"lng":126.95820924848},{"name":"서울봉현초등학교","kind":"초등학교","sido":"서울특별시","addr":"서울특별시 관악구 성현로 117","school_type":"general","lat":37.4912022088395,"lng":126.955347165898},{"name":"서울봉화초등학교","kind":"초등학교","sido":"서울특별시","addr":"서울특별시 중랑구 신내로15길 110","school_type":"general","lat":37.6135762310839,"lng":127.092408488473},{"name":"서울북가좌초등학교","kind":"초등학교","sido":"서울특별시","addr":"서울특별시 서대문구 거북골로19길 20","school_type":"general","lat":37.5772202096676,"lng":126.907778193085},{"name":"서울북성초등학교","kind":"초등학교","sido":"서울특별시","addr":"서울특별시 서대문구 북아현로1나길 22","school_type":"general","lat":37.55963212308,"lng":126.951834913817},{"name":"서울북한산초등학교","kind":"초등학교","sido":"서울특별시","addr":"서울특별시 은평구 대서문길 42-3","school_type":"general","lat":37.6536320835839,"lng":126.950462446061},{"name":"서울불광초등학교","kind":"초등학교","sido":"서울특별시","addr":"서울특별시 은평구 불광로 51","school_type":"general","lat":37.6134294463781,"lng":126.930718712253},{"name":"서울불암초등학교","kind":"초등학교","sido":"서울특별시","addr":"서울특별시 노원구 중계로 178","school_type":"general","lat":37.6511506377134,"lng":127.080650989428},{"name":"서울사근초등학교","kind":"초등학교","sido":"서울특별시","addr":"서울특별시 성동구 사근동11길 16","school_type":"general","lat":37.5626751242374,"lng":127.047560151027},{"name":"서울사당초등학교","kind":"초등학교","sido":"서울특별시","addr":"서울특별시 관악구 남현4길 51","school_type":"general","lat":37.4738196175948,"lng":126.973366964486},{"name":"서울삼각산초등학교","kind":"초등학교","sido":"서울특별시","addr":"서울특별시 강북구 삼양로19길 141","school_type":"general","lat":37.6160412359101,"lng":127.014342650437},{"name":"서울삼광초등학교","kind":"초등학교","sido":"서울특별시","addr":"서울특별시 용산구 두텁바위로1나길 19","school_type":"general","lat":37.5477523117279,"lng":126.976594308147},{"name":"서울삼릉초등학교","kind":"초등학교","sido":"서울특별시","addr":"서울특별시 강남구 봉은사로63길 22","school_type":"general","lat":37.5132582999042,"lng":127.047172253926},{"name":"서울삼선초등학교","kind":"초등학교","sido":"서울특별시","addr":"서울특별시 성북구 보문로29길 106","school_type":"general","lat":37.5871415236472,"lng":127.012671844176},{"name":"서울삼성초등학교","kind":"초등학교","sido":"서울특별시","addr":"서울특별시 관악구 대학7길 52","school_type":"general","lat":37.4685220375851,"lng":126.940492900894},{"name":"서울삼양초등학교","kind":"초등학교","sido":"서울특별시","addr":"서울특별시 강북구 삼양로49길 17","school_type":"general","lat":37.6232955761621,"lng":127.016149099325},{"name":"서울삼육초등학교","kind":"초등학교","sido":"서울특별시","addr":"서울특별시 동대문구 회기로10길 63","school_type":"general","lat":37.5896941349867,"lng":127.0482485373},{"name":"서울삼일초등학교","kind":"초등학교","sido":"서울특별시","addr":"서울특별시 동작구 사당로23나길 27","school_type":"general","lat":37.4882593140973,"lng":126.975188515742},{"name":"서울삼전초등학교","kind":"초등학교","sido":"서울특별시","addr":"서울특별시 송파구 백제고분로28길 19","school_type":"general","lat":37.5017012801562,"lng":127.093268133907},{"name":"서울삼정초등학교","kind":"초등학교","sido":"서울특별시","addr":"서울특별시 강서구 금낭화로 222","school_type":"general","lat":37.5805084341875,"lng":126.810493686239},{"name":"서울상경초등학교","kind":"초등학교","sido":"서울특별시","addr":"서울특별시 노원구 수락산로 237","school_type":"general","lat":37.6704594706621,"lng":127.051773754079},{"name":"서울상계초등학교","kind":"초등학교","sido":"서울특별시","addr":"서울특별시 노원구 상계로9길 39","school_type":"general","lat":37.6588438529621,"lng":127.066336425835},{"name":"서울상곡초등학교","kind":"초등학교","sido":"서울특별시","addr":"서울특별시 노원구 노원로38길 34","school_type":"general","lat":37.6628823049142,"lng":127.062234187186},{"name":"서울상도초등학교","kind":"초등학교","sido":"서울특별시","addr":"서울특별시 동작구 성대로21길 62","school_type":"general","lat":37.5003760295043,"lng":126.937378799359},{"name":"서울상봉초등학교","kind":"초등학교","sido":"서울특별시","addr":"서울특별시 중랑구 동일로126가길 11","school_type":"general","lat":37.5979789522459,"lng":127.083171419175},{"name":"서울상수초등학교","kind":"초등학교","sido":"서울특별시","addr":"서울특별시 노원구 동일로216길 66","school_type":"general","lat":37.6510888982527,"lng":127.064586804676},{"name":"서울상신초등학교","kind":"초등학교","sido":"서울특별시","addr":"서울특별시 은평구 가좌로 361","school_type":"general","lat":37.5975537179419,"lng":126.904604886275},{"name":"서울상암초등학교","kind":"초등학교","sido":"서울특별시","addr":"서울특별시 마포구 월드컵북로 353","school_type":"general","lat":37.5763095825917,"lng":126.891959952963},{"name":"서울상원초등학교","kind":"초등학교","sido":"서울특별시","addr":"서울특별시 노원구 한글비석로54길 119","school_type":"general","lat":37.6676655147961,"lng":127.059630713208},{"name":"서울상월초등학교","kind":"초등학교","sido":"서울특별시","addr":"서울특별시 노원구 동일로221길 27","school_type":"general","lat":37.658683945506,"lng":127.057369284524},{"name":"서울상일초등학교","kind":"초등학교","sido":"서울특별시","addr":"서울특별시 강동구 천호대로 1477","school_type":"general","lat":37.5475721706533,"lng":127.17266348564},{"name":"서울상지초등학교","kind":"초등학교","sido":"서울특별시","addr":"서울특별시 마포구 월드컵로42길 30","school_type":"general","lat":37.5797510164641,"lng":126.882073551893},{"name":"서울상천초등학교","kind":"초등학교","sido":"서울특별시","addr":"서울특별시 노원구 덕릉로 443","school_type":"general","lat":37.6461060086385,"lng":127.057447991502},{"name":"서울상현초등학교","kind":"초등학교","sido":"서울특별시","addr":"서울특별시 동작구 상도로58길 21","school_type":"general","lat":37.4948743920855,"lng":126.952669123087},{"name":"서울새솔초등학교","kind":"초등학교","sido":"서울특별시","addr":"서울특별시 중랑구 신내역로1길 164","school_type":"general","lat":37.6179523956105,"lng":127.111328411856},{"name":"서울서강초등학교","kind":"초등학교","sido":"서울특별시","addr":"서울특별시 마포구 독막로 113","school_type":"general","lat":37.5481050750929,"lng":126.927430860042},{"name":"서울서교초등학교","kind":"초등학교","sido":"서울특별시","addr":"서울특별시 마포구 와우산로23길 20-27","school_type":"general","lat":37.554881730967,"lng":126.924382439365},{"name":"서울서래초등학교","kind":"초등학교","sido":"서울특별시","addr":"서울특별시 서초구 방배로 260","school_type":"general","lat":37.4964040023549,"lng":126.990156472861},{"name":"서울서빙고초등학교","kind":"초등학교","sido":"서울특별시","addr":"서울특별시 용산구 서빙고로51길 14","school_type":"general","lat":37.5220689203394,"lng":126.992300401397},{"name":"서울서신초등학교","kind":"초등학교","sido":"서울특별시","addr":"서울특별시 은평구 은평터널로 150","school_type":"general","lat":37.5922940508202,"lng":126.907382316218},{"name":"서울서원초등학교","kind":"초등학교","sido":"서울특별시","addr":"서울특별시 서초구 고무래로 63","school_type":"general","lat":37.5024388979462,"lng":127.014619457733},{"name":"서울서이초등학교","kind":"초등학교","sido":"서울특별시","addr":"서울특별시 서초구 서운로 35","school_type":"general","lat":37.491564668711,"lng":127.025618024318},{"name":"서울서일초등학교","kind":"초등학교","sido":"서울특별시","addr":"서울특별시 서초구 남부순환로339길 38","school_type":"general","lat":37.4852977769965,"lng":127.02215975144},{"name":"서울서정초등학교","kind":"초등학교","sido":"서울특별시","addr":"서울특별시 양천구 목동로8길 19","school_type":"general","lat":37.523450121384,"lng":126.867236182114},{"name":"서울서초초등학교","kind":"초등학교","sido":"서울특별시","addr":"서울특별시 서초구 서운로 178","school_type":"general","lat":37.4990487668755,"lng":127.024891501335},{"name":"서울석계초등학교","kind":"초등학교","sido":"서울특별시","addr":"서울특별시 성북구 한천로58길 273","school_type":"general","lat":37.6089438673379,"lng":127.069749623952},{"name":"서울석관초등학교","kind":"초등학교","sido":"서울특별시","addr":"서울특별시 성북구 돌곶이로22길 21","school_type":"general","lat":37.610999723005,"lng":127.058332812717},{"name":"서울석촌초등학교","kind":"초등학교","sido":"서울특별시","addr":"서울특별시 송파구 가락로11길 26","school_type":"general","lat":37.5026527756676,"lng":127.105238463221},{"name":"서울선곡초등학교","kind":"초등학교","sido":"서울특별시","addr":"서울특별시 노원구 광운로2길 1","school_type":"general","lat":37.618602019203,"lng":127.057730270535},{"name":"서울선린초등학교","kind":"초등학교","sido":"서울특별시","addr":"서울특별시 강동구 진황도로61길 29","school_type":"general","lat":37.5297601213047,"lng":127.145594039357},{"name":"서울선사초등학교","kind":"초등학교","sido":"서울특별시","addr":"서울특별시 강동구 올림픽로 837","school_type":"general","lat":37.5558469097869,"lng":127.12819596827},{"name":"서울선유초등학교","kind":"초등학교","sido":"서울특별시","addr":"서울특별시 영등포구 선유로43가길 14","school_type":"general","lat":37.532879190933,"lng":126.892776819259},{"name":"서울성내초등학교","kind":"초등학교","sido":"서울특별시","addr":"서울특별시 강동구 성내로3길 19","school_type":"general","lat":37.5313578593416,"lng":127.122500139991},{"name":"서울성북초등학교","kind":"초등학교","sido":"서울특별시","addr":"서울특별시 성북구 성북로 102-10","school_type":"general","lat":37.5940538893567,"lng":126.99877539809},{"name":"서울성산초등학교","kind":"초등학교","sido":"서울특별시","addr":"서울특별시 마포구 양화로3길 94","school_type":"general","lat":37.5534453328883,"lng":126.910669687285},{"name":"서울성서초등학교","kind":"초등학교","sido":"서울특별시","addr":"서울특별시 마포구 성미산로7길 24","school_type":"general","lat":37.5610150373718,"lng":126.910759005302},{"name":"서울성수초등학교","kind":"초등학교","sido":"서울특별시","addr":"서울특별시 성동구 아차산로17길 21","school_type":"general","lat":37.5443378762671,"lng":127.062886077541},{"name":"서울성원초등학교","kind":"초등학교","sido":"서울특별시","addr":"서울특별시 마포구 월드컵로36길 34","school_type":"general","lat":37.5669324413569,"lng":126.905013630897},{"name":"서울성일초등학교","kind":"초등학교","sido":"서울특별시","addr":"서울특별시 강동구 성내로15길 33","school_type":"general","lat":37.5297092388513,"lng":127.128408263098},{"name":"서울성자초등학교","kind":"초등학교","sido":"서울특별시","addr":"서울특별시 광진구 뚝섬로56길 7","school_type":"general","lat":37.531493571169,"lng":127.083408323591},{"name":"서울세검정초등학교","kind":"초등학교","sido":"서울특별시","addr":"서울특별시 종로구 세검정로9길 1","school_type":"general","lat":37.6034986015128,"lng":126.961073121539},{"name":"서울세곡초등학교","kind":"초등학교","sido":"서울특별시","addr":"서울특별시 구로구 고척로33길 34","school_type":"general","lat":37.5050604361168,"lng":126.849126611988},{"name":"서울세륜초등학교","kind":"초등학교","sido":"서울특별시","addr":"서울특별시 송파구 양재대로 1264","school_type":"general","lat":37.5185748448001,"lng":127.134157724554},{"name":"서울세명초등학교","kind":"초등학교","sido":"서울특별시","addr":"서울특별시 강남구 자곡로 55","school_type":"general","lat":37.4688571015783,"lng":127.091075885061},{"name":"서울소의초등학교","kind":"초등학교","sido":"서울특별시","addr":"서울특별시 마포구 마포대로24길 42","school_type":"general","lat":37.552781864533,"lng":126.960655552156},{"name":"서울송례초등학교","kind":"초등학교","sido":"서울특별시","addr":"서울특별시 송파구 위례순환로 439","school_type":"general","lat":37.4778940251025,"lng":127.13849585496},{"name":"서울송원초등학교","kind":"초등학교","sido":"서울특별시","addr":"서울특별시 성동구 동일로43길 9","school_type":"general","lat":37.5541592708709,"lng":127.069526172922},{"name":"서울송전초등학교","kind":"초등학교","sido":"서울특별시","addr":"서울특별시 송파구 석촌호수로 159","school_type":"general","lat":37.5088312569718,"lng":127.095121373383},{"name":"서울송정초등학교","kind":"초등학교","sido":"서울특별시","addr":"서울특별시 강서구 공항대로3길 18","school_type":"general","lat":37.5622308905044,"lng":126.810281254376},{"name":"서울송중초등학교","kind":"초등학교","sido":"서울특별시","addr":"서울특별시 강북구 오현로 9","school_type":"general","lat":37.6174690796359,"lng":127.031996538921},{"name":"서울송천초등학교","kind":"초등학교","sido":"서울특별시","addr":"서울특별시 강북구 삼양로20길 29","school_type":"general","lat":37.614905195868,"lng":127.023735366645},{"name":"서울송파초등학교","kind":"초등학교","sido":"서울특별시","addr":"서울특별시 송파구 백제고분로 400","school_type":"general","lat":37.5069549745149,"lng":127.111247174893},{"name":"서울송화초등학교","kind":"초등학교","sido":"서울특별시","addr":"서울특별시 강서구 방화대로34길 2","school_type":"general","lat":37.5681504658023,"lng":126.818032939459},{"name":"서울수락초등학교","kind":"초등학교","sido":"서울특별시","addr":"서울특별시 노원구 동일로 1745","school_type":"general","lat":37.684506075345,"lng":127.055187311236},{"name":"서울수리초등학교","kind":"초등학교","sido":"서울특별시","addr":"서울특별시 은평구 불광로14길 10-10","school_type":"general","lat":37.6203073698534,"lng":126.934110930932},{"name":"서울수명초등학교","kind":"초등학교","sido":"서울특별시","addr":"서울특별시 강서구 수명로1길 84","school_type":"general","lat":37.5527726671834,"lng":126.823879421286},{"name":"서울수색초등학교","kind":"초등학교","sido":"서울특별시","addr":"서울특별시 은평구 수색로16길 21","school_type":"general","lat":37.5851721490482,"lng":126.896012135221},{"name":"서울수서초등학교","kind":"초등학교","sido":"서울특별시","addr":"서울특별시 강남구 광평로51길 46","school_type":"general","lat":37.4911373654824,"lng":127.10185783552},{"name":"서울수송초등학교","kind":"초등학교","sido":"서울특별시","addr":"서울특별시 강북구 한천로124길 14","school_type":"general","lat":37.6373144075316,"lng":127.032917771185},{"name":"서울수암초등학교","kind":"초등학교","sido":"서울특별시","addr":"서울특별시 노원구 중계로12길 9","school_type":"general","lat":37.647684897261,"lng":127.081465589212},{"name":"서울수유초등학교","kind":"초등학교","sido":"서울특별시","addr":"서울특별시 강북구 삼양로74길 39","school_type":"general","lat":37.631249657314,"lng":127.020292410668},{"name":"서울숭곡초등학교","kind":"초등학교","sido":"서울특별시","addr":"서울특별시 성북구 종암로40길 30","school_type":"general","lat":37.6086454014288,"lng":127.032743405553},{"name":"서울숭덕초등학교","kind":"초등학교","sido":"서울특별시","addr":"서울특별시 성북구 정릉로 279","school_type":"general","lat":37.6038254756354,"lng":127.013292433921},{"name":"서울숭례초등학교","kind":"초등학교","sido":"서울특별시","addr":"서울특별시 성북구 종암로5길 14","school_type":"general","lat":37.5945203773277,"lng":127.035296496549},{"name":"서울숭미초등학교","kind":"초등학교","sido":"서울특별시","addr":"서울특별시 도봉구 노해로 179","school_type":"general","lat":37.6510234416817,"lng":127.027944278021},{"name":"서울숭신초등학교","kind":"초등학교","sido":"서울특별시","addr":"서울특별시 성동구 마장로 161","school_type":"general","lat":37.5676883077439,"lng":127.028005141452},{"name":"서울숭인초등학교","kind":"초등학교","sido":"서울특별시","addr":"서울특별시 성북구 오패산로16길 37","school_type":"general","lat":37.6090977872099,"lng":127.038146527662},{"name":"서울시흥초등학교","kind":"초등학교","sido":"서울특별시","addr":"서울특별시 금천구 독산로23길 26","school_type":"general","lat":37.4553481963092,"lng":126.904649154185},{"name":"서울신가초등학교","kind":"초등학교","sido":"서울특별시","addr":"서울특별시 송파구 송이로 75","school_type":"general","lat":37.5003207198096,"lng":127.119700425145},{"name":"서울신강초등학교","kind":"초등학교","sido":"서울특별시","addr":"서울특별시 양천구 중앙로55길 72","school_type":"general","lat":37.5258441852217,"lng":126.842263907731},{"name":"서울신계초등학교","kind":"초등학교","sido":"서울특별시","addr":"서울특별시 노원구 초안산로 29","school_type":"general","lat":37.6299890777455,"lng":127.052871958868},{"name":"서울신곡초등학교","kind":"초등학교","sido":"서울특별시","addr":"서울특별시 강서구 등촌로13자길 42-14","school_type":"general","lat":37.539095457491,"lng":126.856009569323},{"name":"서울신구로초등학교","kind":"초등학교","sido":"서울특별시","addr":"서울특별시 구로구 가마산로27길 69","school_type":"general","lat":37.4994208675251,"lng":126.888857414498},{"name":"서울신구초등학교","kind":"초등학교","sido":"서울특별시","addr":"서울특별시 강남구 압구정로18길 28","school_type":"general","lat":37.5233697652501,"lng":127.023988358303},{"name":"서울신기초등학교","kind":"초등학교","sido":"서울특별시","addr":"서울특별시 양천구 신정로 292","school_type":"general","lat":37.5113123131977,"lng":126.854212986887},{"name":"서울신길초등학교","kind":"초등학교","sido":"서울특별시","addr":"서울특별시 동작구 알마타길 16","school_type":"general","lat":37.5103665150217,"lng":126.926808573769},{"name":"서울신남성초등학교","kind":"초등학교","sido":"서울특별시","addr":"서울특별시 동작구 사당로 146","school_type":"general","lat":37.4887047110087,"lng":126.964679741398},{"name":"서울신남초등학교","kind":"초등학교","sido":"서울특별시","addr":"서울특별시 양천구 남부순환로83길","school_type":"general","lat":37.5164578282463,"lng":126.843152158167},{"name":"서울신내초등학교","kind":"초등학교","sido":"서울특별시","addr":"서울특별시 중랑구 용마산로125나길 22","school_type":"general","lat":37.6049342235675,"lng":127.100128462105},{"name":"서울신답초등학교","kind":"초등학교","sido":"서울특별시","addr":"서울특별시 동대문구 천호대로 177","school_type":"general","lat":37.5727046089059,"lng":127.042961687519},{"name":"서울신당초등학교","kind":"초등학교","sido":"서울특별시","addr":"서울특별시 중구 난계로 141","school_type":"general","lat":37.5636896515896,"lng":127.023636595929},{"name":"서울신대림초등학교","kind":"초등학교","sido":"서울특별시","addr":"서울특별시 영등포구 대림로8길 25","school_type":"general","lat":37.4921487438027,"lng":126.90607771762},{"name":"서울신도림초등학교","kind":"초등학교","sido":"서울특별시","addr":"서울특별시 구로구 신도림로19길 44","school_type":"general","lat":37.5119963604915,"lng":126.88315069881},{"name":"서울신도초등학교","kind":"초등학교","sido":"서울특별시","addr":"서울특별시 은평구 진관1로 77-23","school_type":"general","lat":37.6329384289784,"lng":126.929198935551},{"name":"서울신동초등학교","kind":"초등학교","sido":"서울특별시","addr":"서울특별시 서초구 나루터로 15","school_type":"general","lat":37.5171300437436,"lng":127.011390388152},{"name":"서울신림초등학교","kind":"초등학교","sido":"서울특별시","addr":"서울특별시 관악구 문성로28길 31","school_type":"general","lat":37.4771198534832,"lng":126.926876735629},{"name":"서울신명초등학교","kind":"초등학교","sido":"서울특별시","addr":"서울특별시 강동구 명일로24길 33","school_type":"general","lat":37.5409268527757,"lng":127.149979091111},{"name":"서울신목초등학교","kind":"초등학교","sido":"서울특별시","addr":"서울특별시 양천구 신목로5길 11-6","school_type":"general","lat":37.5166109770006,"lng":126.872640811853},{"name":"서울신묵초등학교","kind":"초등학교","sido":"서울특별시","addr":"서울특별시 중랑구 동일로149길 46","school_type":"general","lat":37.6065228487307,"lng":127.075835832737},{"name":"서울신미림초등학교","kind":"초등학교","sido":"서울특별시","addr":"서울특별시 구로구 신도림로 26","school_type":"general","lat":37.5071588011358,"lng":126.879584155104},{"name":"서울신방학초등학교","kind":"초등학교","sido":"서울특별시","addr":"서울특별시 도봉구 시루봉로 173","school_type":"general","lat":37.6666842526367,"lng":127.028918089521},{"name":"서울신봉초등학교","kind":"초등학교","sido":"서울특별시","addr":"서울특별시 관악구 양녕로6나길 1","school_type":"general","lat":37.4855779476851,"lng":126.949130876206},{"name":"서울신북초등학교","kind":"초등학교","sido":"서울특별시","addr":"서울특별시 마포구 월드컵북로38길 26","school_type":"general","lat":37.5715459609872,"lng":126.904868991641},{"name":"서울신사초등학교","kind":"초등학교","sido":"서울특별시","addr":"서울특별시 은평구 가좌로 275-2","school_type":"general","lat":37.5928348327068,"lng":126.911983196588},{"name":"서울신상계초등학교","kind":"초등학교","sido":"서울특별시","addr":"서울특별시 노원구 상계로 267","school_type":"general","lat":37.6675183641329,"lng":127.075828032383},{"name":"서울신상도초등학교","kind":"초등학교","sido":"서울특별시","addr":"서울특별시 동작구 장승배기로 14","school_type":"general","lat":37.5008246344742,"lng":126.943817704578},{"name":"서울신서초등학교","kind":"초등학교","sido":"서울특별시","addr":"서울특별시 양천구 목동서로10길 35","school_type":"general","lat":37.5205352530134,"lng":126.862325015812},{"name":"서울신석초등학교","kind":"초등학교","sido":"서울특별시","addr":"서울특별시 마포구 대흥로 33","school_type":"general","lat":37.5445357278463,"lng":126.937779457981},{"name":"서울신성초등학교","kind":"초등학교","sido":"서울특별시","addr":"서울특별시 관악구 신림로 114","school_type":"general","lat":37.472003312266,"lng":126.936754150323},{"name":"서울신암초등학교","kind":"초등학교","sido":"서울특별시","addr":"서울특별시 강동구 올림픽로93길 33-16","school_type":"general","lat":37.5500236743432,"lng":127.124404356441},{"name":"서울신양초등학교","kind":"초등학교","sido":"서울특별시","addr":"서울특별시 광진구 능동로 42","school_type":"general","lat":37.5346820949284,"lng":127.0699952764},{"name":"서울신영초등학교","kind":"초등학교","sido":"서울특별시","addr":"서울특별시 영등포구 도신로4길 32","school_type":"general","lat":37.5010060169412,"lng":126.896094817069},{"name":"서울신용산초등학교","kind":"초등학교","sido":"서울특별시","addr":"서울특별시 용산구 이촌로 255","school_type":"general","lat":37.5206295929735,"lng":126.975366260146},{"name":"서울신우초등학교","kind":"초등학교","sido":"서울특별시","addr":"서울특별시 관악구 호암로 498","school_type":"general","lat":37.4632725256816,"lng":126.932535154048},{"name":"서울신원초등학교","kind":"초등학교","sido":"서울특별시","addr":"서울특별시 양천구 남부순환로58길 32","school_type":"general","lat":37.5295155831457,"lng":126.829865622881},{"name":"서울신월초등학교","kind":"초등학교","sido":"서울특별시","addr":"서울특별시 강서구 강서로31길 48","school_type":"general","lat":37.5403655143855,"lng":126.839455478388},{"name":"서울신은초등학교","kind":"초등학교","sido":"서울특별시","addr":"서울특별시 양천구 신정이펜2로 30","school_type":"general","lat":37.5139128078247,"lng":126.832169591843},{"name":"서울신자초등학교","kind":"초등학교","sido":"서울특별시","addr":"서울특별시 광진구 뚝섬로46길 64","school_type":"general","lat":37.5302454529249,"lng":127.075587591515},{"name":"서울신정초등학교","kind":"초등학교","sido":"서울특별시","addr":"서울특별시 강서구 곰달래로31가길 27","school_type":"general","lat":37.5330611210515,"lng":126.852593386106},{"name":"서울신중초등학교","kind":"초등학교","sido":"서울특별시","addr":"서울특별시 서초구 남부순환로317길 15","school_type":"general","lat":37.4801578791721,"lng":127.009343254537},{"name":"서울신창초등학교","kind":"초등학교","sido":"서울특별시","addr":"서울특별시 도봉구 덕릉로60길 93","school_type":"general","lat":37.6365395299158,"lng":127.042084340998},{"name":"서울신천초등학교","kind":"초등학교","sido":"서울특별시","addr":"서울특별시 송파구 올림픽로 215","school_type":"general","lat":37.5140077737504,"lng":127.095036549398},{"name":"서울신학초등학교","kind":"초등학교","sido":"서울특별시","addr":"서울특별시 도봉구 방학로 247-21","school_type":"general","lat":37.6612204531084,"lng":127.025721318601},{"name":"서울신현초등학교","kind":"초등학교","sido":"서울특별시","addr":"서울특별시 중랑구 봉화산로 188","school_type":"general","lat":37.6058145949305,"lng":127.093521755522},{"name":"서울신화초등학교","kind":"초등학교","sido":"서울특별시","addr":"서울특별시 도봉구 우이천로 120","school_type":"general","lat":37.6331950434853,"lng":127.04088417427},{"name":"서울신흥초등학교","kind":"초등학교","sido":"서울특별시","addr":"서울특별시 금천구 독산로36나길 21","school_type":"general","lat":37.4592842732301,"lng":126.909349183257},{"name":"서울쌍문초등학교","kind":"초등학교","sido":"서울특별시","addr":"서울특별시 도봉구 우이천로 360","school_type":"general","lat":37.6483638272869,"lng":127.024291051625},{"name":"서울아주초등학교","kind":"초등학교","sido":"서울특별시","addr":"서울특별시 송파구 올림픽로4길 59","school_type":"general","lat":37.50578969665,"lng":127.075317277909},{"name":"서울아현초등학교","kind":"초등학교","sido":"서울특별시","addr":"서울특별시 마포구 굴레방로 6","school_type":"general","lat":37.5558159936174,"lng":126.956596106511},{"name":"서울안산초등학교","kind":"초등학교","sido":"서울특별시","addr":"서울특별시 서대문구 통일로 321","school_type":"general","lat":37.5791690097819,"lng":126.952209733658},{"name":"서울안암초등학교","kind":"초등학교","sido":"서울특별시","addr":"서울특별시 성북구 고려대로7가길 39","school_type":"general","lat":37.5871586956296,"lng":127.022098883314},{"name":"서울안천초등학교","kind":"초등학교","sido":"서울특별시","addr":"서울특별시 금천구 한내로 69-16","school_type":"general","lat":37.4587578075219,"lng":126.88839136672},{"name":"서울안평초등학교","kind":"초등학교","sido":"서울특별시","addr":"서울특별시 동대문구 장한로14길 61","school_type":"general","lat":37.565968213548,"lng":127.072033422513},{"name":"서울압구정초등학교","kind":"초등학교","sido":"서울특별시","addr":"서울특별시 강남구 압구정로39길 29","school_type":"general","lat":37.5317391125935,"lng":127.030841741797},{"name":"서울양강초등학교","kind":"초등학교","sido":"서울특별시","addr":"서울특별시 양천구 오목로 101","school_type":"general","lat":37.5241103465762,"lng":126.847375305566},{"name":"서울양남초등학교","kind":"초등학교","sido":"서울특별시","addr":"서울특별시 광진구 뚝섬로64길 71","school_type":"general","lat":37.5311232360546,"lng":127.089234331023},{"name":"서울양동초등학교","kind":"초등학교","sido":"서울특별시","addr":"서울특별시 양천구 오목로23길 24","school_type":"general","lat":37.5258482641162,"lng":126.851240194989},{"name":"서울양명초등학교","kind":"초등학교","sido":"서울특별시","addr":"서울특별시 양천구 중앙로 204","school_type":"general","lat":37.516374951495,"lng":126.856634868655},{"name":"서울양목초등학교","kind":"초등학교","sido":"서울특별시","addr":"서울특별시 양천구 목동로11길 30","school_type":"general","lat":37.5238792766238,"lng":126.861669190913},{"name":"서울양원숲초등학교","kind":"초등학교","sido":"서울특별시","addr":"서울특별시 중랑구 양원역로 95","school_type":"general","lat":37.6090497375586,"lng":127.105433722535},{"name":"서울양원초등학교","kind":"초등학교","sido":"서울특별시","addr":"서울특별시 양천구 화곡로 16","school_type":"general","lat":37.5382284100068,"lng":126.823105084888},{"name":"서울양재초등학교","kind":"초등학교","sido":"서울특별시","addr":"서울특별시 서초구 바우뫼로18길 14","school_type":"general","lat":37.4741653841614,"lng":127.03189250195},{"name":"서울양전초등학교","kind":"초등학교","sido":"서울특별시","addr":"서울특별시 강남구 개포로 513","school_type":"general","lat":37.4902478541395,"lng":127.069170862479},{"name":"서울양진초등학교","kind":"초등학교","sido":"서울특별시","addr":"서울특별시 광진구 워커힐로 32","school_type":"general","lat":37.5449782076528,"lng":127.098714317037},{"name":"서울양천초등학교","kind":"초등학교","sido":"서울특별시","addr":"서울특별시 강서구 양천로 329","school_type":"general","lat":37.5701881708645,"lng":126.839539660332},{"name":"서울양화초등학교","kind":"초등학교","sido":"서울특별시","addr":"서울특별시 양천구 목동중앙북로16길 57","school_type":"general","lat":37.5436692981533,"lng":126.873986042971},{"name":"서울어울초등학교","kind":"초등학교","sido":"서울특별시","addr":"서울특별시 은평구 통일로 650","school_type":"general","lat":37.6065633137733,"lng":126.935058620612},{"name":"서울언남초등학교","kind":"초등학교","sido":"서울특별시","addr":"서울특별시 서초구 헌릉로8길 42","school_type":"general","lat":37.4541133292306,"lng":127.061436582525},{"name":"서울언북초등학교","kind":"초등학교","sido":"서울특별시","addr":"서울특별시 강남구 삼성로135길 42","school_type":"general","lat":37.520125172379,"lng":127.044715764538},{"name":"서울언주초등학교","kind":"초등학교","sido":"서울특별시","addr":"서울특별시 강남구 남부순환로363길 19","school_type":"general","lat":37.4863219964306,"lng":127.03679299115},{"name":"서울여의도초등학교","kind":"초등학교","sido":"서울특별시","addr":"서울특별시 영등포구 여의대방로 439","school_type":"general","lat":37.5232048215986,"lng":126.93679444014},{"name":"서울역삼초등학교","kind":"초등학교","sido":"서울특별시","addr":"서울특별시 강남구 강남대로66길 21","school_type":"general","lat":37.4931444060362,"lng":127.032564910969},{"name":"서울역촌초등학교","kind":"초등학교","sido":"서울특별시","addr":"서울특별시 은평구 은평로3길 25","school_type":"general","lat":37.6015841686977,"lng":126.913928033442},{"name":"서울연가초등학교","kind":"초등학교","sido":"서울특별시","addr":"서울특별시 서대문구 증가로12가길 49-50","school_type":"general","lat":37.5795632014616,"lng":126.917329192961},{"name":"서울연광초등학교","kind":"초등학교","sido":"서울특별시","addr":"서울특별시 은평구 연서로35길 37","school_type":"general","lat":37.6236487604699,"lng":126.923909005211},{"name":"서울연신초등학교","kind":"초등학교","sido":"서울특별시","addr":"서울특별시 은평구 연서로 347","school_type":"general","lat":37.6260599638981,"lng":126.927751281025},{"name":"서울연은초등학교","kind":"초등학교","sido":"서울특별시","addr":"서울특별시 은평구 백련산로2길 35","school_type":"general","lat":37.5905122161631,"lng":126.925112608529},{"name":"서울연지초등학교","kind":"초등학교","sido":"서울특별시","addr":"서울특별시 노원구 월계로55길 48","school_type":"general","lat":37.6331961990879,"lng":127.059550025404},{"name":"서울연천초등학교","kind":"초등학교","sido":"서울특별시","addr":"서울특별시 은평구 연서로34길 22","school_type":"general","lat":37.6213492886599,"lng":126.929917884841},{"name":"서울연촌초등학교","kind":"초등학교","sido":"서울특별시","addr":"서울특별시 노원구 공릉로58길 36","school_type":"general","lat":37.6344239191317,"lng":127.072522941451},{"name":"서울연희초등학교","kind":"초등학교","sido":"서울특별시","addr":"서울특별시 서대문구 연희로 136","school_type":"general","lat":37.5690459271047,"lng":126.934142303217},{"name":"서울염경초등학교","kind":"초등학교","sido":"서울특별시","addr":"서울특별시 강서구 양천로69길 49","school_type":"general","lat":37.5550006717487,"lng":126.871204647976},{"name":"서울염동초등학교","kind":"초등학교","sido":"서울특별시","addr":"서울특별시 강서구 양천로73길 17","school_type":"general","lat":37.5520954793159,"lng":126.872350948978},{"name":"서울염리초등학교","kind":"초등학교","sido":"서울특별시","addr":"서울특별시 마포구 토정로37길 37","school_type":"general","lat":37.5425709323083,"lng":126.946247603396},{"name":"서울염창초등학교","kind":"초등학교","sido":"서울특별시","addr":"서울특별시 강서구 양천로 646-28","school_type":"general","lat":37.5532261352883,"lng":126.867600184199},{"name":"서울영남초등학교","kind":"초등학교","sido":"서울특별시","addr":"서울특별시 금천구 문성로 62-15","school_type":"general","lat":37.4758806998687,"lng":126.909922783649},{"name":"서울영도초등학교","kind":"초등학교","sido":"서울특별시","addr":"서울특별시 양천구 목동중앙로 70","school_type":"general","lat":37.5359499494616,"lng":126.871942644571},{"name":"서울영동초등학교","kind":"초등학교","sido":"서울특별시","addr":"서울특별시 영등포구 국회대로53길 20","school_type":"general","lat":37.5270069102324,"lng":126.907703382657},{"name":"서울영등포초등학교","kind":"초등학교","sido":"서울특별시","addr":"서울특별시 영등포구 경인로 756","school_type":"general","lat":37.5129480156762,"lng":126.898260025571},{"name":"서울영림초등학교","kind":"초등학교","sido":"서울특별시","addr":"서울특별시 영등포구 시흥대로173길 14","school_type":"general","lat":37.4873460122893,"lng":126.902516130281},{"name":"서울영문초등학교","kind":"초등학교","sido":"서울특별시","addr":"서울특별시 영등포구 문래로 56","school_type":"general","lat":37.5198074103506,"lng":126.887589090951},{"name":"서울영본초등학교","kind":"초등학교","sido":"서울특별시","addr":"서울특별시 동작구 만양로12가길 69","school_type":"general","lat":37.5113065101691,"lng":126.94864052145},{"name":"서울영서초등학교","kind":"초등학교","sido":"서울특별시","addr":"서울특별시 구로구 도림로20길 57","school_type":"general","lat":37.4879630931966,"lng":126.895027399291},{"name":"서울영신초등학교","kind":"초등학교","sido":"서울특별시","addr":"서울특별시 영등포구 도신로60길 23","school_type":"general","lat":37.5101719627186,"lng":126.918122078214},{"name":"서울영원초등학교","kind":"초등학교","sido":"서울특별시","addr":"서울특별시 영등포구 도영로 22길 31","school_type":"general","lat":37.5107193620837,"lng":126.902182504089},{"name":"서울영일초등학교","kind":"초등학교","sido":"서울특별시","addr":"서울특별시 구로구 남부순환로105길 218","school_type":"general","lat":37.4856100736284,"lng":126.883911257917},{"name":"서울영중초등학교","kind":"초등학교","sido":"서울특별시","addr":"서울특별시 영등포구 양산로 185","school_type":"general","lat":37.5241432995791,"lng":126.903695688306},{"name":"서울영풍초등학교","kind":"초등학교","sido":"서울특별시","addr":"서울특별시 송파구 오금로57길 15","school_type":"general","lat":37.4961862376383,"lng":127.143214689204},{"name":"서울영화초등학교","kind":"초등학교","sido":"서울특별시","addr":"서울특별시 동작구 등용로8길 3","school_type":"general","lat":37.5089369468762,"lng":126.932815969374},{"name":"서울영희초등학교","kind":"초등학교","sido":"서울특별시","addr":"서울특별시 강남구 일원로 21","school_type":"general","lat":37.4923003980946,"lng":127.081132787699},{"name":"서울오금초등학교","kind":"초등학교","sido":"서울특별시","addr":"서울특별시 송파구 위례성대로22길 11","school_type":"general","lat":37.5093704878322,"lng":127.131977915625},{"name":"서울오류남초등학교","kind":"초등학교","sido":"서울특별시","addr":"서울특별시 구로구 서해안로24길 22","school_type":"general","lat":37.4897166823284,"lng":126.839098527316},{"name":"서울오류초등학교","kind":"초등학교","sido":"서울특별시","addr":"서울특별시 구로구 경인로19길 39","school_type":"general","lat":37.4975370576845,"lng":126.842037699221},{"name":"서울오륜초등학교","kind":"초등학교","sido":"서울특별시","addr":"서울특별시 송파구 양재대로 1196","school_type":"general","lat":37.5124274792928,"lng":127.134396802963},{"name":"서울오봉초등학교","kind":"초등학교","sido":"서울특별시","addr":"서울특별시 도봉구 시루봉로 285","school_type":"general","lat":37.6717184874026,"lng":127.040258979982},{"name":"서울오정초등학교","kind":"초등학교","sido":"서울특별시","addr":"서울특별시 구로구 경인로2길 10","school_type":"general","lat":37.4901372514516,"lng":126.82641766297},{"name":"서울오현초등학교","kind":"초등학교","sido":"서울특별시","addr":"서울특별시 강북구 월계로 221","school_type":"general","lat":37.6232028439088,"lng":127.046225894356},{"name":"서울옥수초등학교","kind":"초등학교","sido":"서울특별시","addr":"서울특별시 성동구 금호로1길 25","school_type":"general","lat":37.5455293912538,"lng":127.021869551034},{"name":"서울옥정초등학교","kind":"초등학교","sido":"서울특별시","addr":"서울특별시 성동구 한림말길 43","school_type":"general","lat":37.5423097389598,"lng":127.015785478614},{"name":"서울온곡초등학교","kind":"초등학교","sido":"서울특별시","addr":"서울특별시 노원구 한글비석로52길 59","school_type":"general","lat":37.6673295252885,"lng":127.065597387199},{"name":"서울온수초등학교","kind":"초등학교","sido":"서울특별시","addr":"서울특별시 구로구 부일로 893","school_type":"general","lat":37.4935106167356,"lng":126.826661571624},{"name":"서울왕북초등학교","kind":"초등학교","sido":"서울특별시","addr":"서울특별시 강남구 광평로31길 74","school_type":"general","lat":37.4862610232719,"lng":127.086237195421},{"name":"서울용강초등학교","kind":"초등학교","sido":"서울특별시","addr":"서울특별시 마포구 백범로17길 9","school_type":"general","lat":37.549112429713,"lng":126.944058506049},{"name":"서울용곡초등학교","kind":"초등학교","sido":"서울특별시","addr":"서울특별시 광진구 용마산로22길 82","school_type":"general","lat":37.5671086161443,"lng":127.088452984118},{"name":"서울용답초등학교","kind":"초등학교","sido":"서울특별시","addr":"서울특별시 성동구 용답25길 1","school_type":"general","lat":37.5607483738375,"lng":127.053786164972},{"name":"서울용동초등학교","kind":"초등학교","sido":"서울특별시","addr":"서울특별시 노원구 한글비석로1길 81-11","school_type":"general","lat":37.6410575739212,"lng":127.069114774673},{"name":"서울용두초등학교","kind":"초등학교","sido":"서울특별시","addr":"서울특별시 동대문구 천호대로13길 43","school_type":"general","lat":37.5764049847235,"lng":127.0283819823},{"name":"서울용마초등학교","kind":"초등학교","sido":"서울특별시","addr":"서울특별시 광진구 천호대로113길 10","school_type":"general","lat":37.5578273465317,"lng":127.083527417056},{"name":"서울용산초등학교","kind":"초등학교","sido":"서울특별시","addr":"서울 용산구 한강대로57길 33","school_type":"general","lat":37.535613442977,"lng":126.972550624529},{"name":"서울용암초등학교","kind":"초등학교","sido":"서울특별시","addr":"서울특별시 용산구 녹사평대로60길 39","school_type":"general","lat":37.5453029008824,"lng":126.989434775031},{"name":"서울용원초등학교","kind":"초등학교","sido":"서울특별시","addr":"서울특별시 노원구 섬밭로 144","school_type":"general","lat":37.6299301501593,"lng":127.068936691961},{"name":"서울우면초등학교","kind":"초등학교","sido":"서울특별시","addr":"서울특별시 서초구 태봉로","school_type":"general","lat":37.4653655626944,"lng":127.026054562784},{"name":"서울우솔초등학교","kind":"초등학교","sido":"서울특별시","addr":"서울특별시 서초구 양재대로2길 74","school_type":"general","lat":37.4570942208519,"lng":127.019275619438},{"name":"서울우신초등학교","kind":"초등학교","sido":"서울특별시","addr":"서울특별시 영등포구 신길로 190","school_type":"general","lat":37.5098647213535,"lng":126.911863664868},{"name":"서울우암초등학교","kind":"초등학교","sido":"서울특별시","addr":"서울특별시 서초구 바우뫼로7길 38","school_type":"general","lat":37.4723005921488,"lng":127.023731348976},{"name":"서울우이초등학교","kind":"초등학교","sido":"서울특별시","addr":"서울특별시 강북구 삼양로99길 36","school_type":"general","lat":37.6386058279529,"lng":127.014240485582},{"name":"서울우장초등학교","kind":"초등학교","sido":"서울특별시","addr":"서울특별시 강서구 화곡로 263","school_type":"general","lat":37.5496381852817,"lng":126.845984193202},{"name":"서울원광초등학교","kind":"초등학교","sido":"서울특별시","addr":"서울특별시 노원구 덕릉로76길 18","school_type":"general","lat":37.654290852548,"lng":127.075304285056},{"name":"서울원당초등학교","kind":"초등학교","sido":"서울특별시","addr":"서울특별시 관악구 봉천로 505","school_type":"general","lat":37.4813047920283,"lng":126.955766635019},{"name":"서울원명초등학교","kind":"초등학교","sido":"서울특별시","addr":"서울특별시 서초구 고무래로 90-6","school_type":"general","lat":37.5007499044884,"lng":127.017066977739},{"name":"서울원묵초등학교","kind":"초등학교","sido":"서울특별시","addr":"서울특별시 중랑구 숙선옹주로 109","school_type":"general","lat":37.6177488108138,"lng":127.08681415088},{"name":"서울원신초등학교","kind":"초등학교","sido":"서울특별시","addr":"서울특별시 관악구 광신길 177","school_type":"general","lat":37.4672075457163,"lng":126.92727524954},{"name":"서울원촌초등학교","kind":"초등학교","sido":"서울특별시","addr":"서울특별시 서초구 사평대로45길 26","school_type":"general","lat":37.5062446440008,"lng":127.012346682947},{"name":"서울원효초등학교","kind":"초등학교","sido":"서울특별시","addr":"서울특별시 용산구 효창원로13길 38","school_type":"general","lat":37.5361612583146,"lng":126.951545316146},{"name":"서울월계초등학교","kind":"초등학교","sido":"서울특별시","addr":"서울특별시 노원구 월계로45가길 10","school_type":"general","lat":37.6279505755622,"lng":127.050869480548},{"name":"서울월곡초등학교","kind":"초등학교","sido":"서울특별시","addr":"서울특별시 성북구 장월로3길 42","school_type":"general","lat":37.6100238748815,"lng":127.046083188246},{"name":"서울월정초등학교","kind":"초등학교","sido":"서울특별시","addr":"서울특별시 강서구 월정로 176","school_type":"general","lat":37.5349941902013,"lng":126.836293577736},{"name":"서울월천초등학교","kind":"초등학교","sido":"서울특별시","addr":"서울특별시 도봉구 노해로70길 96","school_type":"general","lat":37.6479137277855,"lng":127.051425751311},{"name":"서울월촌초등학교","kind":"초등학교","sido":"서울특별시","addr":"서울특별시 양천구 목동중앙로 132","school_type":"general","lat":37.5406954304154,"lng":126.876258028151},{"name":"서울위례별초등학교","kind":"초등학교","sido":"서울특별시","addr":"서울특별시 송파구 위례광장로 243","school_type":"general","lat":37.4790497618126,"lng":127.145018831355},{"name":"서울위례솔초등학교","kind":"초등학교","sido":"서울특별시","addr":"서울특별시 송파구 위례북로2길 12","school_type":"general","lat":37.486734037842,"lng":127.150753871028},{"name":"서울위례초등학교","kind":"초등학교","sido":"서울특별시","addr":"서울특별시 강동구 명일로 23","school_type":"general","lat":37.5223185221619,"lng":127.139436648101},{"name":"서울유현초등학교","kind":"초등학교","sido":"서울특별시","addr":"서울특별시 강북구 인수봉로37길 24","school_type":"general","lat":37.632286451855,"lng":127.011327052457},{"name":"서울윤중초등학교","kind":"초등학교","sido":"서울특별시","addr":"서울특별시 영등포구 여의나루로2길 14","school_type":"general","lat":37.5196416407122,"lng":126.92259080096},{"name":"서울율현초등학교","kind":"초등학교","sido":"서울특별시","addr":"서울특별시 강남구 밤고개로21길 15","school_type":"general","lat":37.474558700755,"lng":127.108265007698},{"name":"서울은로초등학교","kind":"초등학교","sido":"서울특별시","addr":"서울특별시 동작구 서달로 115","school_type":"general","lat":37.5033929766399,"lng":126.959778422441},{"name":"서울은명초등학교","kind":"초등학교","sido":"서울특별시","addr":"서울특별시 은평구 은평로4길 21-9","school_type":"general","lat":37.5976791222992,"lng":126.918275747068},{"name":"서울은빛초등학교","kind":"초등학교","sido":"서울특별시","addr":"서울특별시 은평구 진관3로 73-17","school_type":"general","lat":37.6426828611882,"lng":126.918730453447},{"name":"서울은정초등학교","kind":"초등학교","sido":"서울특별시","addr":"서울특별시 양천구 목동남로 85","school_type":"general","lat":37.5111416389366,"lng":126.867180395408},{"name":"서울은진초등학교","kind":"초등학교","sido":"서울특별시","addr":"서울특별시 은평구 진관1로 21-20","school_type":"general","lat":37.6330440427703,"lng":126.920996007067},{"name":"서울은천초등학교","kind":"초등학교","sido":"서울특별시","addr":"서울특별시 관악구 은천로 69","school_type":"general","lat":37.4865852040387,"lng":126.942679132637},{"name":"서울은평초등학교","kind":"초등학교","sido":"서울특별시","addr":"서울특별시 은평구 은평로 239","school_type":"general","lat":37.6023040358796,"lng":126.934033612153},{"name":"서울을지초등학교","kind":"초등학교","sido":"서울특별시","addr":"서울특별시 노원구 중계로 239","school_type":"general","lat":37.6505874233691,"lng":127.073350350295},{"name":"서울응봉초등학교","kind":"초등학교","sido":"서울특별시","addr":"서울특별시 성동구 독서당로62길 28","school_type":"general","lat":37.5502533901839,"lng":127.033829695602},{"name":"서울응암초등학교","kind":"초등학교","sido":"서울특별시","addr":"서울특별시 은평구 가좌로6길 20","school_type":"general","lat":37.5887531914177,"lng":126.921616096958},{"name":"서울이문초등학교","kind":"초등학교","sido":"서울특별시","addr":"서울특별시 동대문구 신이문로 16","school_type":"general","lat":37.6018964867149,"lng":127.064885003959},{"name":"서울이수초등학교","kind":"초등학교","sido":"서울특별시","addr":"서울특별시 서초구 방배천로4길 23","school_type":"general","lat":37.4781887381851,"lng":126.984058772938},{"name":"서울이태원초등학교","kind":"초등학교","sido":"서울특별시","addr":"서울특별시 용산구 녹사평대로40길 19","school_type":"general","lat":37.5364777066784,"lng":126.987672660332},{"name":"서울인수초등학교","kind":"초등학교","sido":"서울특별시","addr":"서울특별시 강북구 인수봉로 269","school_type":"general","lat":37.6430505301735,"lng":127.009135759866},{"name":"서울인왕초등학교","kind":"초등학교","sido":"서울특별시","addr":"서울특별시 서대문구 세무서길 33-9","school_type":"general","lat":37.5902198832433,"lng":126.944804483066},{"name":"서울인헌초등학교","kind":"초등학교","sido":"서울특별시","addr":"서울특별시 관악구 낙성대로 23","school_type":"general","lat":37.4767753536009,"lng":126.959875787277},{"name":"서울일신초등학교","kind":"초등학교","sido":"서울특별시","addr":"서울특별시 성북구 월곡로 74","school_type":"general","lat":37.5989819527133,"lng":127.040219755884},{"name":"서울일원초등학교","kind":"초등학교","sido":"서울특별시","addr":"서울특별시 강남구 영동대로4길 20","school_type":"general","lat":37.4898127052732,"lng":127.076141940265},{"name":"서울자곡초등학교","kind":"초등학교","sido":"서울특별시","addr":"서울특별시 강남구 자곡로 150","school_type":"general","lat":37.4720493601914,"lng":127.099482575625},{"name":"서울자양초등학교","kind":"초등학교","sido":"서울특별시","addr":"서울특별시 광진구 아차산로44길 26","school_type":"general","lat":37.5368378891148,"lng":127.080107720459},{"name":"서울자운초등학교","kind":"초등학교","sido":"서울특별시","addr":"서울특별시 도봉구 마들로13길 166","school_type":"general","lat":37.6580556761129,"lng":127.047017564524},{"name":"서울잠동초등학교","kind":"초등학교","sido":"서울특별시","addr":"서울특별시 송파구 올림픽로35길 122","school_type":"general","lat":37.518364083155,"lng":127.099997855402},{"name":"서울잠신초등학교","kind":"초등학교","sido":"서울특별시","addr":"서울특별시 송파구 잠실로 32","school_type":"general","lat":37.5141697474146,"lng":127.08797670792},{"name":"서울잠실초등학교","kind":"초등학교","sido":"서울특별시","addr":"서울특별시 송파구 올림픽로35길 20","school_type":"general","lat":37.5201410422976,"lng":127.110799789543},{"name":"서울잠원초등학교","kind":"초등학교","sido":"서울특별시","addr":"서울특별시 서초구 신반포로16길 15-25","school_type":"general","lat":37.5018590933365,"lng":126.9983875282},{"name":"서울잠일초등학교","kind":"초등학교","sido":"서울특별시","addr":"서울특별시 송파구 올림픽로 95","school_type":"general","lat":37.5147416618092,"lng":127.081636216984},{"name":"서울잠전초등학교","kind":"초등학교","sido":"서울특별시","addr":"서울특별시 송파구 올림픽로12길 51","school_type":"general","lat":37.5073349275982,"lng":127.083864376692},{"name":"서울잠현초등학교","kind":"초등학교","sido":"서울특별시","addr":"서울특별시 송파구 올림픽로37길 109","school_type":"general","lat":37.5225858707847,"lng":127.104722782408},{"name":"서울장곡초등학교","kind":"초등학교","sido":"서울특별시","addr":"서울특별시 성북구 장월로23길 16","school_type":"general","lat":37.6168600216765,"lng":127.048151233375},{"name":"서울장수초등학교","kind":"초등학교","sido":"서울특별시","addr":"서울특별시 양천구 신정로13가길 30","school_type":"general","lat":37.5129972017178,"lng":126.845159735242},{"name":"서울장안초등학교","kind":"초등학교","sido":"서울특별시","addr":"서울특별시 광진구 군자로 74","school_type":"general","lat":37.549876450253,"lng":127.072402467919},{"name":"서울장월초등학교","kind":"초등학교","sido":"서울특별시","addr":"서울특별시 성북구 한천로101길 66","school_type":"general","lat":37.6219292248912,"lng":127.047320465849},{"name":"서울장위초등학교","kind":"초등학교","sido":"서울특별시","addr":"서울특별시 성북구 장월로8가길 41","school_type":"general","lat":37.6114414258051,"lng":127.050005965999},{"name":"서울장충초등학교","kind":"초등학교","sido":"서울특별시","addr":"서울특별시 중구 청구로17길 40","school_type":"general","lat":37.559971222213,"lng":127.01170475684},{"name":"서울장평초등학교","kind":"초등학교","sido":"서울특별시","addr":"서울특별시 동대문구 답십리로","school_type":"general","lat":37.5728706947252,"lng":127.058958260045},{"name":"서울재동초등학교","kind":"초등학교","sido":"서울특별시","addr":"서울특별시 종로구 북촌로4길 7","school_type":"general","lat":37.5799415657652,"lng":126.9855017071},{"name":"서울전곡초등학교","kind":"초등학교","sido":"서울특별시","addr":"서울특별시 동대문구 전농로 172","school_type":"general","lat":37.5807042921469,"lng":127.056012445216},{"name":"서울전농초등학교","kind":"초등학교","sido":"서울특별시","addr":"서울특별시 동대문구 사가정로 66","school_type":"general","lat":37.5746852353644,"lng":127.054397292161},{"name":"서울전동초등학교","kind":"초등학교","sido":"서울특별시","addr":"서울특별시 동대문구 전농로16길 61","school_type":"general","lat":37.5790832853249,"lng":127.060805297019},{"name":"서울정곡초등학교","kind":"초등학교","sido":"서울특별시","addr":"서울특별시 강서구 방화대로50길 22","school_type":"general","lat":37.5769596950152,"lng":126.818932773167},{"name":"서울정덕초등학교","kind":"초등학교","sido":"서울특별시","addr":"서울특별시 성북구 아리랑로 63","school_type":"general","lat":37.5982399496277,"lng":127.013421324355},{"name":"서울정릉초등학교","kind":"초등학교","sido":"서울특별시","addr":"서울특별시 성북구 솔샘로25가길 8","school_type":"general","lat":37.6197915298294,"lng":127.005532713286},{"name":"서울정목초등학교","kind":"초등학교","sido":"서울특별시","addr":"서울특별시 양천구 목동중앙로3길 30-10","school_type":"general","lat":37.5365288457417,"lng":126.870049083471},{"name":"서울정수초등학교","kind":"초등학교","sido":"서울특별시","addr":"서울특별시 성북구 정릉로24길 58","school_type":"general","lat":37.6037748856219,"lng":127.007718883621},{"name":"서울정심초등학교","kind":"초등학교","sido":"서울특별시","addr":"서울특별시 금천구 독산로78다길 89","school_type":"general","lat":37.4719826762833,"lng":126.908186532287},{"name":"서울조원초등학교","kind":"초등학교","sido":"서울특별시","addr":"서울특별시 관악구 조원로 67","school_type":"general","lat":37.484127765974,"lng":126.909505620969},{"name":"서울종암초등학교","kind":"초등학교","sido":"서울특별시","addr":"서울특별시 동대문구 무학로44길 25","school_type":"general","lat":37.5823074106355,"lng":127.031856383108},{"name":"서울중계초등학교","kind":"초등학교","sido":"서울특별시","addr":"서울특별시 노원구 한글비석로19길 39","school_type":"general","lat":37.6578622263163,"lng":127.073348327013},{"name":"서울중곡초등학교","kind":"초등학교","sido":"서울특별시","addr":"서울특별시 중랑구 면목로23길 20","school_type":"general","lat":37.5748917275114,"lng":127.083439043719},{"name":"서울중광초등학교","kind":"초등학교","sido":"서울특별시","addr":"서울특별시 광진구 긴고랑로13길 59","school_type":"general","lat":37.565172983593,"lng":127.082512285004},{"name":"서울중대초등학교","kind":"초등학교","sido":"서울특별시","addr":"서울특별시 송파구 송파대로36길 8","school_type":"general","lat":37.4998119038214,"lng":127.113605457993},{"name":"서울중동초등학교","kind":"초등학교","sido":"서울특별시","addr":"서울특별시 마포구 월드컵북로 152","school_type":"general","lat":37.5664458381853,"lng":126.911780404952},{"name":"서울중랑초등학교","kind":"초등학교","sido":"서울특별시","addr":"서울특별시 중랑구 봉우재로6길 26","school_type":"general","lat":37.5889223067352,"lng":127.075482375754},{"name":"서울중마초등학교","kind":"초등학교","sido":"서울특별시","addr":"서울특별시 광진구 동일로72길 43","school_type":"general","lat":37.5661150659734,"lng":127.080023721804},{"name":"서울중목초등학교","kind":"초등학교","sido":"서울특별시","addr":"서울특별시 중랑구 동일로 665","school_type":"general","lat":37.5900368304084,"lng":127.079200700601},{"name":"서울중원초등학교","kind":"초등학교","sido":"서울특별시","addr":"서울특별시 노원구 섬밭로 316","school_type":"general","lat":37.6439662833968,"lng":127.063052005752},{"name":"서울중평초등학교","kind":"초등학교","sido":"서울특별시","addr":"서울특별시 노원구 섬밭로 241","school_type":"general","lat":37.6372508810163,"lng":127.063731552615},{"name":"서울중현초등학교","kind":"초등학교","sido":"서울특별시","addr":"서울특별시 노원구 섬밭로 181","school_type":"general","lat":37.632255170053,"lng":127.066056635951},{"name":"서울중화초등학교","kind":"초등학교","sido":"서울특별시","addr":"서울특별시 중랑구 신내로7가길 22","school_type":"general","lat":37.6029182729949,"lng":127.094539488049},{"name":"서울중흥초등학교","kind":"초등학교","sido":"서울특별시","addr":"서울특별시 중랑구 봉화산로 82","school_type":"general","lat":37.6014097153165,"lng":127.083849146888},{"name":"서울증산초등학교","kind":"초등학교","sido":"서울특별시","addr":"서울특별시 은평구 증산서길 61","school_type":"general","lat":37.5825652695002,"lng":126.904276446505},{"name":"서울지향초등학교","kind":"초등학교","sido":"서울특별시","addr":"서울특별시 양천구 신정로11길 74","school_type":"general","lat":37.5128376807713,"lng":126.837023804089},{"name":"서울진관초등학교","kind":"초등학교","sido":"서울특별시","addr":"서울특별시 은평구 진관4로 78-16","school_type":"general","lat":37.6454198616021,"lng":126.929052478211},{"name":"서울창경초등학교","kind":"초등학교","sido":"서울특별시","addr":"서울특별시 도봉구 도봉로129길 54","school_type":"general","lat":37.6566021823161,"lng":127.034602499962},{"name":"서울창도초등학교","kind":"초등학교","sido":"서울특별시","addr":"서울특별시 도봉구 방학로 32-28","school_type":"general","lat":37.6641348713315,"lng":127.048784033819},{"name":"서울창동초등학교","kind":"초등학교","sido":"서울특별시","addr":"서울특별시 도봉구 해등로16길 81","school_type":"general","lat":37.6553630407375,"lng":127.044832890478},{"name":"서울창림초등학교","kind":"초등학교","sido":"서울특별시","addr":"서울특별시 도봉구 덕릉로63길 46","school_type":"general","lat":37.6432370796248,"lng":127.041604074164},{"name":"서울창서초등학교","kind":"초등학교","sido":"서울특별시","addr":"서울특별시 서대문구 연세로5나길 30-3","school_type":"general","lat":37.5581430512569,"lng":126.933480871339},{"name":"서울창신초등학교","kind":"초등학교","sido":"서울특별시","addr":"서울특별시 종로구 지봉로 73","school_type":"general","lat":37.5762114748296,"lng":127.014293687874},{"name":"서울창원초등학교","kind":"초등학교","sido":"서울특별시","addr":"서울특별시 도봉구 해등로 103","school_type":"general","lat":37.6526440884387,"lng":127.039979883482},{"name":"서울창일초등학교","kind":"초등학교","sido":"서울특별시","addr":"서울특별시 도봉구 노해로66길 84","school_type":"general","lat":37.647657641563,"lng":127.047626299257},{"name":"서울창천초등학교","kind":"초등학교","sido":"서울특별시","addr":"서울특별시 마포구 백범로1길 56","school_type":"general","lat":37.5549178201995,"lng":126.939295148137},{"name":"서울천동초등학교","kind":"초등학교","sido":"서울특별시","addr":"서울특별시 강동구 성안로 200","school_type":"general","lat":37.541015901733,"lng":127.137828727405},{"name":"서울천왕초등학교","kind":"초등학교","sido":"서울특별시","addr":"서울특별시 구로구 천왕로1길 11","school_type":"general","lat":37.481412481777,"lng":126.836947364315},{"name":"서울천이초등학교","kind":"초등학교","sido":"서울특별시","addr":"서울특별시 구로구 오류로 30","school_type":"general","lat":37.4863679517074,"lng":126.83999205713},{"name":"서울천일초등학교","kind":"초등학교","sido":"서울특별시","addr":"서울특별시 강동구 구천면로 266","school_type":"general","lat":37.5443612197289,"lng":127.133436718515},{"name":"서울천호초등학교","kind":"초등학교","sido":"서울특별시","addr":"서울특별시 강동구 구천면로 310-11","school_type":"general","lat":37.5477189664877,"lng":127.136592330295},{"name":"서울청계초등학교","kind":"초등학교","sido":"서울특별시","addr":"서울특별시 노원구 공릉로 431","school_type":"general","lat":37.6449803620092,"lng":127.065817490235},{"name":"서울청구초등학교","kind":"초등학교","sido":"서울특별시","addr":"서울특별시 중구 다산로 170","school_type":"general","lat":37.5591166793514,"lng":127.013724413955},{"name":"서울청담초등학교","kind":"초등학교","sido":"서울특별시","addr":"서울특별시 강남구 압구정로71길 9","school_type":"general","lat":37.5282818704161,"lng":127.045153024716},{"name":"서울청덕초등학교","kind":"초등학교","sido":"서울특별시","addr":"서울특별시 성북구 정릉로9라길 11","school_type":"general","lat":37.6120328876191,"lng":127.000333434653},{"name":"서울청량초등학교","kind":"초등학교","sido":"서울특별시","addr":"서울특별시 동대문구 회기로25길 31","school_type":"general","lat":37.5923093987643,"lng":127.055908478798},{"name":"서울청룡초등학교","kind":"초등학교","sido":"서울특별시","addr":"서울특별시 관악구 관악로5길 61","school_type":"general","lat":37.4767252713626,"lng":126.951284574125},{"name":"서울청운초등학교","kind":"초등학교","sido":"서울특별시","addr":"서울특별시 종로구 자하문로 105","school_type":"general","lat":37.585805731799,"lng":126.969294698603},{"name":"서울청파초등학교","kind":"초등학교","sido":"서울특별시","addr":"서울특별시 용산구 효창원로 228","school_type":"general","lat":37.5473049014312,"lng":126.963543924367},{"name":"서울초당초등학교","kind":"초등학교","sido":"서울특별시","addr":"서울특별시 도봉구 해등로32길 11","school_type":"general","lat":37.6586278284753,"lng":127.021956174977},{"name":"서울충무초등학교","kind":"초등학교","sido":"서울특별시","addr":"서울 중구 퇴계로50길 13","school_type":"general","lat":37.5619494839149,"lng":127.001235055009},{"name":"서울치현초등학교","kind":"초등학교","sido":"서울특별시","addr":"서울특별시 강서구 방화대로47길 43","school_type":"general","lat":37.5759191517213,"lng":126.814645646553},{"name":"서울탑동초등학교","kind":"초등학교","sido":"서울특별시","addr":"서울특별시 금천구 탑골로 47-3","school_type":"general","lat":37.4523226721912,"lng":126.914525435709},{"name":"서울탑산초등학교","kind":"초등학교","sido":"서울특별시","addr":"서울특별시 강서구 허준로 109","school_type":"general","lat":37.5670047685109,"lng":126.85259398539},{"name":"서울태랑초등학교","kind":"초등학교","sido":"서울특별시","addr":"서울특별시 노원구 화랑로51나길 31","school_type":"general","lat":37.6262508612825,"lng":127.090915053347},{"name":"서울태릉초등학교","kind":"초등학교","sido":"서울특별시","addr":"서울특별시 노원구 노원로1길 36","school_type":"general","lat":37.622879790197,"lng":127.08478195175},{"name":"서울토성초등학교","kind":"초등학교","sido":"서울특별시","addr":"서울특별시 송파구 풍성로20길 44","school_type":"general","lat":37.5318963267968,"lng":127.115772382237},{"name":"서울평화초등학교","kind":"초등학교","sido":"서울특별시","addr":"서울특별시 송파구 송파대로26길 22","school_type":"general","lat":37.4916183368483,"lng":127.122700488472},{"name":"서울포이초등학교","kind":"초등학교","sido":"서울특별시","addr":"서울특별시 강남구 개포로22길 87","school_type":"general","lat":37.4758166247606,"lng":127.052045721323},{"name":"서울풍납초등학교","kind":"초등학교","sido":"서울특별시","addr":"서울특별시 송파구 풍성로 43","school_type":"general","lat":37.5352940632209,"lng":127.117532366819},{"name":"서울풍성초등학교","kind":"초등학교","sido":"서울특별시","addr":"서울특별시 송파구 강동대로2길 13","school_type":"general","lat":37.5263118815737,"lng":127.113492681415},{"name":"서울하늘숲초등학교","kind":"초등학교","sido":"서울특별시","addr":"서울특별시 구로구 오리로 1106","school_type":"general","lat":37.4841594284099,"lng":126.841481997252},{"name":"서울하늘초등학교","kind":"초등학교","sido":"서울특별시","addr":"서울특별시 마포구 월드컵북로 502-14","school_type":"general","lat":37.5858060895514,"lng":126.880857196502},{"name":"서울학동초등학교","kind":"초등학교","sido":"서울특별시","addr":"서울특별시 강남구 선릉로115길 42","school_type":"general","lat":37.512045952,"lng":127.039435597045},{"name":"서울한강초등학교","kind":"초등학교","sido":"서울특별시","addr":"서울특별시 용산구 한강대로14길 9","school_type":"general","lat":37.5252261730909,"lng":126.965099429477},{"name":"서울한남초등학교","kind":"초등학교","sido":"서울특별시","addr":"서울특별시 용산구 한남대로 112","school_type":"general","lat":37.5392036532348,"lng":127.005599847436},{"name":"서울한산초등학교","kind":"초등학교","sido":"서울특별시","addr":"서울특별시 강동구 풍성로 261","school_type":"general","lat":37.5286945837724,"lng":127.14107694998},{"name":"서울한서초등학교","kind":"초등학교","sido":"서울특별시","addr":"서울특별시 마포구 대흥로24바길 27","school_type":"general","lat":37.5536478329572,"lng":126.949778833645},{"name":"서울한천초등학교","kind":"초등학교","sido":"서울특별시","addr":"서울특별시 노원구 마들로 45","school_type":"general","lat":37.6207501680548,"lng":127.069258063469},{"name":"서울항동초등학교","kind":"초등학교","sido":"서울특별시","addr":"서울특별시 구로구 연동로 178","school_type":"general","lat":37.4770921430884,"lng":126.824189454348},{"name":"서울해누리초등학교","kind":"초등학교","sido":"서울특별시","addr":"서울특별시 송파구 송파대로37길 95","school_type":"general","lat":37.4984115921213,"lng":127.102124196858},{"name":"서울행당초등학교","kind":"초등학교","sido":"서울특별시","addr":"서울특별시 성동구 고산자로8길 6","school_type":"general","lat":37.5570191301189,"lng":127.034873404864},{"name":"서울행림초등학교","kind":"초등학교","sido":"서울특별시","addr":"서울특별시 동작구 솔밭로 47","school_type":"general","lat":37.4828114848946,"lng":126.964977725041},{"name":"서울행현초등학교","kind":"초등학교","sido":"서울특별시","addr":"서울특별시 성동구 행당로 95","school_type":"general","lat":37.5577089897922,"lng":127.0293680158},{"name":"서울혜화초등학교","kind":"초등학교","sido":"서울특별시","addr":"서울특별시 종로구 혜화로 32","school_type":"general","lat":37.5891727709231,"lng":126.999927989279},{"name":"서울홍릉초등학교","kind":"초등학교","sido":"서울특별시","addr":"서울특별시 동대문구 회기로 90","school_type":"general","lat":37.5906875196186,"lng":127.047705124334},{"name":"서울홍연초등학교","kind":"초등학교","sido":"서울특별시","addr":"서울특별시 서대문구 백련사길 55","school_type":"general","lat":37.582118713581,"lng":126.93066044978},{"name":"서울홍은초등학교","kind":"초등학교","sido":"서울특별시","addr":"서울특별시 서대문구 세검정로 105","school_type":"general","lat":37.5975402724558,"lng":126.949457988833},{"name":"서울홍제초등학교","kind":"초등학교","sido":"서울특별시","addr":"서울특별시 서대문구 홍은중앙로 13","school_type":"general","lat":37.5934809108736,"lng":126.945336524574},{"name":"서울홍파초등학교","kind":"초등학교","sido":"서울특별시","addr":"서울특별시 동대문구 고산자로 518","school_type":"general","lat":37.586120384461,"lng":127.039414975087},{"name":"서울화계초등학교","kind":"초등학교","sido":"서울특별시","addr":"서울특별시 강북구 솔매로50가길 25","school_type":"general","lat":37.6238849781413,"lng":127.02971619019},{"name":"서울화곡초등학교","kind":"초등학교","sido":"서울특별시","addr":"서울특별시 강서구 초록마을로 28","school_type":"general","lat":37.5436696173457,"lng":126.846471725362},{"name":"서울화일초등학교","kind":"초등학교","sido":"서울특별시","addr":"서울특별시 강서구 까치산로10길 70","school_type":"general","lat":37.5407120318703,"lng":126.847470802939},{"name":"서울효제초등학교","kind":"초등학교","sido":"서울특별시","addr":"서울특별시 종로구 대학로 12","school_type":"general","lat":37.5727179599562,"lng":127.003515410111},{"name":"서울후암초등학교","kind":"초등학교","sido":"서울특별시","addr":"서울특별시 용산구 두텁바위로 140","school_type":"general","lat":37.5513654103686,"lng":126.981724291635},{"name":"서울휘경초등학교","kind":"초등학교","sido":"서울특별시","addr":"서울특별시 동대문구 망우로6길 48","school_type":"general","lat":37.5856754144498,"lng":127.057916891964},{"name":"서울휘봉초등학교","kind":"초등학교","sido":"서울특별시","addr":"서울특별시 동대문구 장안벚꽃로 309","school_type":"general","lat":37.5856764110055,"lng":127.070041638322},{"name":"서울흑석초등학교","kind":"초등학교","sido":"서울특별시","addr":"서울특별시 동작구 현충로 87","school_type":"general","lat":37.5082970524535,"lng":126.965149160443},{"name":"서울흥인초등학교","kind":"초등학교","sido":"서울특별시","addr":"서울특별시 중구 청구로6길 11","school_type":"general","lat":37.5609374871352,"lng":127.014616166709},{"name":"선일초등학교","kind":"초등학교","sido":"서울특별시","addr":"서울특별시 은평구 갈현로29길 27","school_type":"general","lat":37.6203042094228,"lng":126.911993073275},{"name":"성동초등학교","kind":"초등학교","sido":"서울특별시","addr":"서울특별시 광진구 자양로4길 63","school_type":"general","lat":37.5332813682573,"lng":127.089281026795},{"name":"성신초등학교","kind":"초등학교","sido":"서울특별시","addr":"서울특별시 성북구 북악산로 918","school_type":"general","lat":37.5946226781717,"lng":127.023128563512},{"name":"세종초등학교","kind":"초등학교","sido":"서울특별시","addr":"서울특별시 광진구 군자로 114","school_type":"general","lat":37.5530110986438,"lng":127.072864629554},{"name":"숭의초등학교","kind":"초등학교","sido":"서울특별시","addr":"서울특별시 중구 소파로2길 10","school_type":"general","lat":37.5578530747432,"lng":126.987481605528},{"name":"신광초등학교","kind":"초등학교","sido":"서울특별시","addr":"서울특별시 용산구 청파로 263","school_type":"general","lat":37.5428998795519,"lng":126.969447523164},{"name":"영훈초등학교","kind":"초등학교","sido":"서울특별시","addr":"서울특별시 강북구 도봉로13가길 19","school_type":"general","lat":37.6146818749027,"lng":127.02809331872},{"name":"예일초등학교","kind":"초등학교","sido":"서울특별시","addr":"서울특별시 은평구 연서로 117","school_type":"general","lat":37.6109458980893,"lng":126.914792838283},{"name":"우촌초등학교","kind":"초등학교","sido":"서울특별시","addr":"서울특별시 성북구 성북로4길 52-1","school_type":"general","lat":37.5956408923336,"lng":127.011400646113},{"name":"운현초등학교","kind":"초등학교","sido":"서울특별시","addr":"서울특별시 종로구 삼일대로 460","school_type":"general","lat":37.5766672930696,"lng":126.988198556535},{"name":"유석초등학교","kind":"초등학교","sido":"서울특별시","addr":"서울특별시 강서구 화곡로69길 9","school_type":"general","lat":37.560801806853,"lng":126.853779444824},{"name":"은석초등학교","kind":"초등학교","sido":"서울특별시","addr":"서울특별시 동대문구 장안벚꽃로 205","school_type":"general","lat":37.5784502701654,"lng":127.076003088926},{"name":"이화여자대학교사범대학부속초등학교","kind":"초등학교","sido":"서울특별시","addr":"서울특별시 서대문구 성산로 512-39","school_type":"general","lat":37.5611502235257,"lng":126.942775077877},{"name":"중앙대학교사범대학부속초등학교","kind":"초등학교","sido":"서울특별시","addr":"서울특별시 동작구 서달로 135","school_type":"general","lat":37.5052685494717,"lng":126.960162287237},{"name":"청원초등학교","kind":"초등학교","sido":"서울특별시","addr":"서울특별시 노원구 한글비석로 506","school_type":"general","lat":37.6652515464657,"lng":127.062532889006},{"name":"추계초등학교","kind":"초등학교","sido":"서울특별시","addr":"서울특별시 서대문구 북아현로11가길 7","school_type":"general","lat":37.5631767195176,"lng":126.954059321222},{"name":"충암초등학교","kind":"초등학교","sido":"서울특별시","addr":"서울특별시 은평구 가좌로5길 5","school_type":"general","lat":37.5846402882465,"lng":126.921809482886},{"name":"태강삼육초등학교","kind":"초등학교","sido":"서울특별시","addr":"서울특별시 노원구 화랑로 815","school_type":"general","lat":37.643357369067,"lng":127.108850343184},{"name":"한신초등학교","kind":"초등학교","sido":"서울특별시","addr":"서울특별시 도봉구 노해로49길 69","school_type":"general","lat":37.6533558400471,"lng":127.032427255133},{"name":"한양초등학교","kind":"초등학교","sido":"서울특별시","addr":"서울특별시 성동구 살곶이길 208","school_type":"general","lat":37.5576210338606,"lng":127.050263444631},{"name":"홍익대학교사범대학부속초등학교","kind":"초등학교","sido":"서울특별시","addr":"서울특별시 마포구 성미산로 51","school_type":"general","lat":37.559665162458,"lng":126.912928685692},{"name":"화랑초등학교","kind":"초등학교","sido":"서울특별시","addr":"서울특별시 노원구 화랑로 621","school_type":"general","lat":37.6273815936787,"lng":127.091621159803},{"name":"가락중학교","kind":"중학교","sido":"서울특별시","addr":"서울특별시 송파구 송이로 45","school_type":"general","lat":37.5023397085349,"lng":127.11897125744},{"name":"가산중학교","kind":"중학교","sido":"서울특별시","addr":"서울특별시 금천구 시흥대로115길 48","school_type":"general","lat":37.468777055274,"lng":126.894474890365},{"name":"가원중학교","kind":"중학교","sido":"서울특별시","addr":"서울특별시 송파구 중대로10길 40-18","school_type":"general","lat":37.4909683312292,"lng":127.122978948911},{"name":"가재울중학교","kind":"중학교","sido":"서울특별시","addr":"서울특별시 서대문구 수색로 100-75","school_type":"general","lat":37.5750983516219,"lng":126.909974232219},{"name":"강남중학교","kind":"중학교","sido":"서울특별시","addr":"서울특별시 동작구 대방동15길 29","school_type":"general","lat":37.5027626308253,"lng":126.923346619702},{"name":"강동중학교","kind":"중학교","sido":"서울특별시","addr":"서울특별시 강동구 풍산로 237","school_type":"general","lat":37.5696502492074,"lng":127.177836046342},{"name":"강명중학교","kind":"중학교","sido":"서울특별시","addr":"서울특별시 강동구 상일로12길 56","school_type":"general","lat":37.5556127825867,"lng":127.174608361426},{"name":"강북중학교","kind":"중학교","sido":"서울특별시","addr":"서울특별시 강북구 한천로150길 67","school_type":"general","lat":37.6449158953693,"lng":127.025373389048},{"name":"강빛중학교","kind":"중학교","sido":"서울특별시","addr":"서울특별시 강동구 아리수로93다길 1","school_type":"general","lat":37.5743433210453,"lng":127.170774922577},{"name":"강신중학교","kind":"중학교","sido":"서울특별시","addr":"서울특별시 양천구 남부순환로 604","school_type":"general","lat":37.5151371613165,"lng":126.838160107241},{"name":"강일중학교","kind":"중학교","sido":"서울특별시","addr":"서울특별시 강동구 고덕로27길 12","school_type":"general","lat":37.5553453453104,"lng":127.138008577115},{"name":"강현중학교","kind":"중학교","sido":"서울특별시","addr":"서울특별시 동작구 상도로13라길 22","school_type":"general","lat":37.5031159857549,"lng":126.930756309893},{"name":"개봉중학교","kind":"중학교","sido":"서울특별시","addr":"서울특별시 구로구 고척로21나길 68","school_type":"general","lat":37.5035293156194,"lng":126.842399758595},{"name":"개운중학교","kind":"중학교","sido":"서울특별시","addr":"서울특별시 성북구 북악산로 935","school_type":"general","lat":37.5946266547149,"lng":127.024842114657},{"name":"개웅중학교","kind":"중학교","sido":"서울특별시","addr":"서울특별시 구로구 개봉로11길 81","school_type":"general","lat":37.48752689616,"lng":126.851071080046},{"name":"개원중학교","kind":"중학교","sido":"서울특별시","addr":"서울특별시 강남구 영동대로 101","school_type":"general","lat":37.4915905275033,"lng":127.071900307455},{"name":"개포중학교","kind":"중학교","sido":"서울특별시","addr":"서울특별시 강남구 선릉로 9","school_type":"general","lat":37.4804473919149,"lng":127.062402866859},{"name":"거원중학교","kind":"중학교","sido":"서울특별시","addr":"서울특별시 송파구 양산로2길 30","school_type":"general","lat":37.4876964764281,"lng":127.146542554504},{"name":"건국대학교사범대학부속중학교","kind":"중학교","sido":"서울특별시","addr":"서울특별시 광진구 자양로 145-1","school_type":"general","lat":37.5417240729902,"lng":127.081597057268},{"name":"경서중학교","kind":"중학교","sido":"서울특별시","addr":"서울특별시 강서구 양천로59길 31","school_type":"general","lat":37.5612418553699,"lng":126.857763950485},{"name":"경성중학교","kind":"중학교","sido":"서울특별시","addr":"서울특별시 마포구 성미산로 111","school_type":"general","lat":37.563510635781,"lng":126.919166278819},{"name":"경수중학교","kind":"중학교","sido":"서울특별시","addr":"서울특별시 성동구 뚝섬로13길 14","school_type":"general","lat":37.5395090367488,"lng":127.059271203056},{"name":"경신중학교","kind":"중학교","sido":"서울특별시","addr":"서울특별시 종로구 혜화로 74","school_type":"general","lat":37.5922022663657,"lng":126.999531005507},{"name":"경원중학교","kind":"중학교","sido":"서울특별시","addr":"서울특별시 서초구 신반포로33길 39","school_type":"general","lat":37.5115815961934,"lng":127.009018254738},{"name":"경인중학교","kind":"중학교","sido":"서울특별시","addr":"서울특별시 구로구 경인로 301","school_type":"general","lat":37.4984656617815,"lng":126.853672529481},{"name":"경일중학교","kind":"중학교","sido":"서울특별시","addr":"서울특별시 성동구 성수일로 27","school_type":"general","lat":37.5438083798316,"lng":127.047853796815},{"name":"경희여자중학교","kind":"중학교","sido":"서울특별시","addr":"서울특별시 동대문구 경희대로 26","school_type":"general","lat":37.5939491407769,"lng":127.054890960564},{"name":"경희중학교","kind":"중학교","sido":"서울특별시","addr":"서울특별시 동대문구 경희대로 26","school_type":"general","lat":37.5939491407769,"lng":127.054890960564},{"name":"고덕중학교","kind":"중학교","sido":"서울특별시","addr":"서울특별시 강동구 동남로82길 94","school_type":"general","lat":37.5603584289834,"lng":127.161761886139},{"name":"고려대학교사범대학부속중학교","kind":"중학교","sido":"서울특별시","addr":"서울특별시 성북구 정릉로 161","school_type":"general","lat":37.6080476933587,"lng":127.002616144531},{"name":"고명중학교","kind":"중학교","sido":"서울특별시","addr":"서울특별시 성북구 북악산로 870","school_type":"general","lat":37.597674141541,"lng":127.019187491701},{"name":"고척중학교","kind":"중학교","sido":"서울특별시","addr":"서울특별시 구로구 중앙로3길 20","school_type":"general","lat":37.4997408260167,"lng":126.861342460735},{"name":"공릉중학교","kind":"중학교","sido":"서울특별시","addr":"서울특별시 노원구 노원로1길 42","school_type":"general","lat":37.6221359473952,"lng":127.083501333421},{"name":"공항중학교","kind":"중학교","sido":"서울특별시","addr":"서울특별시 강서구 방화대로 241","school_type":"general","lat":37.5621745590982,"lng":126.814808958668},{"name":"관악중학교","kind":"중학교","sido":"서울특별시","addr":"서울특별시 관악구 남부순환로237길 60","school_type":"general","lat":37.4812582784976,"lng":126.961912338875},{"name":"광남중학교","kind":"중학교","sido":"서울특별시","addr":"서울특별시 광진구 아차산로70길 17-62","school_type":"general","lat":37.5408304051926,"lng":127.101643877784},{"name":"광성중학교","kind":"중학교","sido":"서울특별시","addr":"서울 마포구 신수로8길 20","school_type":"general","lat":37.5486975552073,"lng":126.935969575594},{"name":"광신중학교","kind":"중학교","sido":"서울특별시","addr":"서울특별시 관악구 광신길 141","school_type":"general","lat":37.4644762024804,"lng":126.925940565455},{"name":"광양중학교","kind":"중학교","sido":"서울특별시","addr":"서울특별시 광진구 자양로3길 7","school_type":"general","lat":37.5308913414973,"lng":127.08616998675},{"name":"광운중학교","kind":"중학교","sido":"서울특별시","addr":"서울특별시 노원구 광운로1길 24","school_type":"general","lat":37.6192431974844,"lng":127.056540751938},{"name":"광장중학교","kind":"중학교","sido":"서울특별시","addr":"서울특별시 광진구 광장로1길 1","school_type":"general","lat":37.5471775185817,"lng":127.101927589353},{"name":"광진중학교","kind":"중학교","sido":"서울특별시","addr":"서울특별시 광진구 뚝섬로64길 45","school_type":"general","lat":37.5322195901849,"lng":127.090162126057},{"name":"광희중학교","kind":"중학교","sido":"서울특별시","addr":"서울특별시 성동구 독서당로62길 46","school_type":"general","lat":37.5511545255411,"lng":127.033980048989},{"name":"구로중학교","kind":"중학교","sido":"서울특별시","addr":"서울특별시 구로구 구로중앙로 48","school_type":"general","lat":37.4948597203552,"lng":126.891099914602},{"name":"구룡중학교","kind":"중학교","sido":"서울특별시","addr":"서울특별시 강남구 선릉로 103","school_type":"general","lat":37.4862129389068,"lng":127.056507505045},{"name":"구산중학교","kind":"중학교","sido":"서울특별시","addr":"서울특별시 은평구 갈현로15길 20-23","school_type":"general","lat":37.6098720248468,"lng":126.90948871144},{"name":"구암중학교","kind":"중학교","sido":"서울특별시","addr":"서울특별시 관악구 성현로 53","school_type":"general","lat":37.4927662360841,"lng":126.949035651603},{"name":"구의중학교","kind":"중학교","sido":"서울특별시","addr":"서울특별시 광진구 광나루로30길 80","school_type":"general","lat":37.5428503028479,"lng":127.078840375276},{"name":"구일중학교","kind":"중학교","sido":"서울특별시","addr":"서울특별시 구로구 구일로 90-133","school_type":"general","lat":37.4953009067244,"lng":126.873770176593},{"name":"국사봉중학교","kind":"중학교","sido":"서울특별시","addr":"서울특별시 동작구 양녕로20길 20","school_type":"general","lat":37.493532631943,"lng":126.944055659373},{"name":"금옥중학교","kind":"중학교","sido":"서울특별시","addr":"서울특별시 양천구 신정로 213","school_type":"general","lat":37.5109653172242,"lng":126.843971681779},{"name":"금호중학교","kind":"중학교","sido":"서울특별시","addr":"서울특별시 중구 청구로 6","school_type":"general","lat":37.5584508828541,"lng":127.020835938371},{"name":"길음중학교","kind":"중학교","sido":"서울특별시","addr":"서울특별시 성북구 길음로 144","school_type":"general","lat":37.6140334599191,"lng":127.017752359697},{"name":"난곡중학교","kind":"중학교","sido":"서울특별시","addr":"서울특별시 금천구 문성로 67","school_type":"general","lat":37.4780455835119,"lng":126.910791624653},{"name":"난우중학교","kind":"중학교","sido":"서울특별시","addr":"서울특별시 관악구 난곡로16길 32","school_type":"general","lat":37.4668039555901,"lng":126.922828324577},{"name":"남강중학교","kind":"중학교","sido":"서울특별시","addr":"서울특별시 관악구 난곡로34길 80","school_type":"general","lat":37.4713756726623,"lng":126.924909105757},{"name":"남대문중학교","kind":"중학교","sido":"서울특별시","addr":"서울특별시 성북구 한천로 660-30","school_type":"general","lat":37.6185360086599,"lng":127.055981121102},{"name":"남서울중학교","kind":"중학교","sido":"서울특별시","addr":"서울특별시 관악구 남부순환로172길 97","school_type":"general","lat":37.4821362472153,"lng":126.921037135349},{"name":"남성중학교","kind":"중학교","sido":"서울특별시","addr":"서울특별시 동작구 남부순환로269길 166","school_type":"general","lat":37.4790082237647,"lng":126.97241407945},{"name":"내곡중학교","kind":"중학교","sido":"서울특별시","addr":"서울특별시 서초구 청계산로7길 9-20","school_type":"general","lat":37.4520032504691,"lng":127.054444623274},{"name":"노곡중학교","kind":"중학교","sido":"서울특별시","addr":"서울특별시 도봉구 노해로70길 95","school_type":"general","lat":37.6488025057469,"lng":127.053743652903},{"name":"노원중학교","kind":"중학교","sido":"서울특별시","addr":"서울특별시 노원구 동일로213길 26","school_type":"general","lat":37.6493611386676,"lng":127.059691996616},{"name":"노일중학교","kind":"중학교","sido":"서울특별시","addr":"서울특별시 노원구 동일로231길 24","school_type":"general","lat":37.6722888633529,"lng":127.053889693074},{"name":"녹천중학교","kind":"중학교","sido":"서울특별시","addr":"서울특별시 노원구 월계로 376","school_type":"general","lat":37.6310791072444,"lng":127.061742156935},{"name":"단국대학교사범대학부속중학교","kind":"중학교","sido":"서울특별시","addr":"서울특별시 강남구 도곡로64길 21","school_type":"general","lat":37.4956174948977,"lng":127.057768228297},{"name":"당곡중학교","kind":"중학교","sido":"서울특별시","addr":"서울특별시 관악구 봉천로13길 101","school_type":"general","lat":37.4923586311415,"lng":126.932678731475},{"name":"당산서중학교","kind":"중학교","sido":"서울특별시","addr":"서울특별시 영등포구 당산로41길 12","school_type":"general","lat":37.5324839425003,"lng":126.898825095957},{"name":"당산중학교","kind":"중학교","sido":"서울특별시","addr":"서울특별시 영등포구 버드나루로 160","school_type":"general","lat":37.5320330761599,"lng":126.907614032983},{"name":"대경중학교","kind":"중학교","sido":"서울특별시","addr":"서울특별시 중구 매봉18길 111","school_type":"general","lat":37.5563732600255,"lng":127.016979156363},